$GPGGA,170429.727,1301.612,N,08015.292,E,1,12,1.0,0.0,M,0.0,M,,*66
$GPGSA,A,3,01,02,03,04,05,06,07,08,09,10,11,12,1.0,1.0,1.0*30
$GPRMC,170429.727,A,1301.612,N,08015.292,E,517.7,227.2,140624,000.0,W*76
$GPGGA,170430.727,1301.513,N,08015.185,E,1,12,1.0,0.0,M,0.0,M,,*69
$GPGSA,A,3,01,02,03,04,05,06,07,08,09,10,11,12,1.0,1.0,1.0*30
$GPRMC,170430.727,A,1301.513,N,08015.185,E,647.2,209.9,140624,000.0,W*7D
$GPGGA,170431.727,1301.356,N,08015.095,E,1,12,1.0,0.0,M,0.0,M,,*6F
$GPGSA,A,3,01,02,03,04,05,06,07,08,09,10,11,12,1.0,1.0,1.0*30
$GPRMC,170431.727,A,1301.356,N,08015.095,E,442.7,179.4,140624,000.0,W*70
$GPGGA,170432.727,1301.233,N,08015.096,E,1,12,1.0,0.0,M,0.0,M,,*6D
$GPGSA,A,3,01,02,03,04,05,06,07,08,09,10,11,12,1.0,1.0,1.0*30
$GPRMC,170432.727,A,1301.233,N,08015.096,E,613.2,139.9,140624,000.0,W*78
$GPGGA,170433.727,1301.102,N,08015.207,E,1,12,1.0,0.0,M,0.0,M,,*67
$GPGSA,A,3,01,02,03,04,05,06,07,08,09,10,11,12,1.0,1.0,1.0*30
$GPRMC,170433.727,A,1301.102,N,08015.207,E,838.9,114.6,140624,000.0,W*7E
$GPGGA,170434.727,1301.002,N,08015.423,E,1,12,1.0,0.0,M,0.0,M,,*61
$GPGSA,A,3,01,02,03,04,05,06,07,08,09,10,11,12,1.0,1.0,1.0*30
$GPRMC,170434.727,A,1301.002,N,08015.423,E,636.7,096.4,140624,000.0,W*7F
$GPGGA,170435.727,1300.982,N,08015.604,E,1,12,1.0,0.0,M,0.0,M,,*67
$GPGSA,A,3,01,02,03,04,05,06,07,08,09,10,11,12,1.0,1.0,1.0*30
$GPRMC,170435.727,A,1300.982,N,08015.604,E,620.7,085.9,140624,000.0,W*71
$GPGGA,170436.727,1300.995,N,08015.780,E,1,12,1.0,0.0,M,0.0,M,,*6F
$GPGSA,A,3,01,02,03,04,05,06,07,08,09,10,11,12,1.0,1.0,1.0*30
$GPRMC,170436.727,A,1300.995,N,08015.780,E,583.5,074.2,140624,000.0,W*74
$GPGGA,170437.727,1301.040,N,08015.940,E,1,12,1.0,0.0,M,0.0,M,,*6C
$GPGSA,A,3,01,02,03,04,05,06,07,08,09,10,11,12,1.0,1.0,1.0*30
$GPRMC,170437.727,A,1301.040,N,08015.940,E,520.0,030.3,140624,000.0,W*7A
$GPGGA,170438.727,1301.165,N,08016.013,E,1,12,1.0,0.0,M,0.0,M,,*69
$GPGSA,A,3,01,02,03,04,05,06,07,08,09,10,11,12,1.0,1.0,1.0*30
$GPRMC,170438.727,A,1301.165,N,08016.013,E,543.0,003.4,140624,000.0,W*7D
$GPGGA,170439.727,1301.316,N,08016.022,E,1,12,1.0,0.0,M,0.0,M,,*6C
$GPGSA,A,3,01,02,03,04,05,06,07,08,09,10,11,12,1.0,1.0,1.0*30
$GPRMC,170439.727,A,1301.316,N,08016.022,E,448.6,325.0,140624,000.0,W*77
$GPGGA,170440.727,1301.419,N,08015.950,E,1,12,1.0,0.0,M,0.0,M,,*65
$GPGSA,A,3,01,02,03,04,05,06,07,08,09,10,11,12,1.0,1.0,1.0*30
$GPRMC,170440.727,A,1301.419,N,08015.950,E,247.0,319.5,140624,000.0,W*7B
$GPGGA,170441.727,1301.471,N,08015.905,E,1,12,1.0,0.0,M,0.0,M,,*6A
$GPGSA,A,3,01,02,03,04,05,06,07,08,09,10,11,12,1.0,1.0,1.0*30
$GPRMC,170441.727,A,1301.471,N,08015.905,E,470.0,321.3,140624,000.0,W*7B
$GPGGA,170442.727,1301.574,N,08015.823,E,1,12,1.0,0.0,M,0.0,M,,*68
$GPGSA,A,3,01,02,03,04,05,06,07,08,09,10,11,12,1.0,1.0,1.0*30
$GPRMC,170442.727,A,1301.574,N,08015.823,E,665.4,291.0,140624,000.0,W*72
$GPGGA,170443.727,1301.642,N,08015.646,E,1,12,1.0,0.0,M,0.0,M,,*62
$GPGSA,A,3,01,02,03,04,05,06,07,08,09,10,11,12,1.0,1.0,1.0*30
$GPRMC,170443.727,A,1301.642,N,08015.646,E,470.7,273.2,140624,000.0,W*73
$GPGGA,170444.727,1301.650,N,08015.512,E,1,12,1.0,0.0,M,0.0,M,,*64
$GPGSA,A,3,01,02,03,04,05,06,07,08,09,10,11,12,1.0,1.0,1.0*30
$GPRMC,170444.727,A,1301.650,N,08015.512,E,744.5,259.8,140624,000.0,W*71
$GPGGA,170445.727,1301.612,N,08015.304,E,1,12,1.0,0.0,M,0.0,M,,*62
$GPGSA,A,3,01,02,03,04,05,06,07,08,09,10,11,12,1.0,1.0,1.0*30
$GPRMC,170445.727,A,1301.612,N,08015.304,E,068.4,172.2,140624,000.0,W*7F
$GPGGA,170446.727,1301.593,N,08015.306,E,1,12,1.0,0.0,M,0.0,M,,*69
$GPGSA,A,3,01,02,03,04,05,06,07,08,09,10,11,12,1.0,1.0,1.0*30
$GPRMC,170446.727,A,1301.593,N,08015.306,E,076.9,221.0,140624,000.0,W*71
$GPGGA,170447.727,1301.577,N,08015.292,E,1,12,1.0,0.0,M,0.0,M,,*6E
$GPGSA,A,3,01,02,03,04,05,06,07,08,09,10,11,12,1.0,1.0,1.0*30
$GPRMC,170447.727,A,1301.577,N,08015.292,E,076.9,000.0,140624,000.0,W*77
$GPGGA,170448.727,1301.577,N,08015.292,E,1,12,1.0,0.0,M,0.0,M,,*61
$GPGSA,A,3,01,02,03,04,05,06,07,08,09,10,11,12,1.0,1.0,1.0*30
$GPRMC,170448.727,A,1301.577,N,08015.292,E,148.0,211.9,140624,000.0,W*76
$GPGGA,170449.727,1301.542,N,08015.270,E,1,12,1.0,0.0,M,0.0,M,,*6A
$GPGSA,A,3,01,02,03,04,05,06,07,08,09,10,11,12,1.0,1.0,1.0*30
$GPRMC,170449.727,A,1301.542,N,08015.270,E,311.9,088.4,140624,000.0,W*75
$GPGGA,170450.727,1301.544,N,08015.359,E,1,12,1.0,0.0,M,0.0,M,,*6E
$GPGSA,A,3,01,02,03,04,05,06,07,08,09,10,11,12,1.0,1.0,1.0*30
$GPRMC,170450.727,A,1301.544,N,08015.359,E,311.9,000.0,140624,000.0,W*75
$GPGGA,170451.727,1301.544,N,08015.359,E,1,12,1.0,0.0,M,0.0,M,,*6F
$GPGSA,A,3,01,02,03,04,05,06,07,08,09,10,11,12,1.0,1.0,1.0*30
$GPRMC,170451.727,A,1301.544,N,08015.359,E,170.5,147.3,140624,000.0,W*7C
$GPGGA,170452.727,1301.504,N,08015.385,E,1,12,1.0,0.0,M,0.0,M,,*69
$GPGSA,A,3,01,02,03,04,05,06,07,08,09,10,11,12,1.0,1.0,1.0*30
$GPRMC,170452.727,A,1301.504,N,08015.385,E,166.6,282.2,140624,000.0,W*75
$GPGGA,170453.727,1301.514,N,08015.339,E,1,12,1.0,0.0,M,0.0,M,,*6E
$GPGSA,A,3,01,02,03,04,05,06,07,08,09,10,11,12,1.0,1.0,1.0*30
$GPRMC,170453.727,A,1301.514,N,08015.339,E,060.3,282.7,140624,000.0,W*75
$GPGGA,170454.727,1301.518,N,08015.322,E,1,12,1.0,0.0,M,0.0,M,,*6F
$GPGSA,A,3,01,02,03,04,05,06,07,08,09,10,11,12,1.0,1.0,1.0*30
$GPRMC,170454.727,A,1301.518,N,08015.322,E,140.7,275.4,140624,000.0,W*78
$GPGGA,170455.727,1301.522,N,08015.282,E,1,12,1.0,0.0,M,0.0,M,,*6C
$GPGSA,A,3,01,02,03,04,05,06,07,08,09,10,11,12,1.0,1.0,1.0*30
$GPRMC,170455.727,A,1301.522,N,08015.282,E,145.7,299.1,140624,000.0,W*79
$GPGGA,170456.727,1301.542,N,08015.246,E,1,12,1.0,0.0,M,0.0,M,,*61
$GPGSA,A,3,01,02,03,04,05,06,07,08,09,10,11,12,1.0,1.0,1.0*30
$GPRMC,170456.727,A,1301.542,N,08015.246,E,150.4,213.4,140624,000.0,W*74
$GPGGA,170457.727,1301.507,N,08015.223,E,1,12,1.0,0.0,M,0.0,M,,*62
$GPGSA,A,3,01,02,03,04,05,06,07,08,09,10,11,12,1.0,1.0,1.0*30
$GPRMC,170457.727,A,1301.507,N,08015.223,E,211.0,227.5,140624,000.0,W*73
$GPGGA,170458.727,1301.466,N,08015.179,E,1,12,1.0,0.0,M,0.0,M,,*67
$GPGSA,A,3,01,02,03,04,05,06,07,08,09,10,11,12,1.0,1.0,1.0*30
$GPRMC,170458.727,A,1301.466,N,08015.179,E,178.3,189.0,140624,000.0,W*7B
$GPGGA,170459.727,1301.418,N,08015.171,E,1,12,1.0,0.0,M,0.0,M,,*67
$GPGSA,A,3,01,02,03,04,05,06,07,08,09,10,11,12,1.0,1.0,1.0*30
$GPRMC,170459.727,A,1301.418,N,08015.171,E,195.5,221.1,140624,000.0,W*7E
$GPGGA,170500.727,1301.376,N,08015.135,E,1,12,1.0,0.0,M,0.0,M,,*65
$GPGSA,A,3,01,02,03,04,05,06,07,08,09,10,11,12,1.0,1.0,1.0*30
$GPRMC,170500.727,A,1301.376,N,08015.135,E,195.5,000.0,140624,000.0,W*7C
$GPGGA,170501.727,1301.376,N,08015.135,E,1,12,1.0,0.0,M,0.0,M,,*64
$GPGSA,A,3,01,02,03,04,05,06,07,08,09,10,11,12,1.0,1.0,1.0*30
$GPRMC,170501.727,A,1301.376,N,08015.135,E,167.4,183.2,140624,000.0,W*79
$GPGGA,170502.727,1301.330,N,08015.133,E,1,12,1.0,0.0,M,0.0,M,,*63
$GPGSA,A,3,01,02,03,04,05,06,07,08,09,10,11,12,1.0,1.0,1.0*30
$GPRMC,170502.727,A,1301.330,N,08015.133,E,190.6,174.4,140624,000.0,W*7A
$GPGGA,170503.727,1301.277,N,08015.138,E,1,12,1.0,0.0,M,0.0,M,,*6B
$GPGSA,A,3,01,02,03,04,05,06,07,08,09,10,11,12,1.0,1.0,1.0*30
$GPRMC,170503.727,A,1301.277,N,08015.138,E,240.6,139.6,140624,000.0,W*77
$GPGGA,170504.727,1301.226,N,08015.181,E,1,12,1.0,0.0,M,0.0,M,,*6A
$GPGSA,A,3,01,02,03,04,05,06,07,08,09,10,11,12,1.0,1.0,1.0*30
$GPRMC,170504.727,A,1301.226,N,08015.181,E,050.5,207.2,140624,000.0,W*7C
$GPGGA,170505.727,1301.213,N,08015.175,E,1,12,1.0,0.0,M,0.0,M,,*66
$GPGSA,A,3,01,02,03,04,05,06,07,08,09,10,11,12,1.0,1.0,1.0*30
$GPRMC,170505.727,A,1301.213,N,08015.175,E,050.5,190.6,140624,000.0,W*79
$GPGGA,170506.727,1301.199,N,08015.172,E,1,12,1.0,0.0,M,0.0,M,,*63
$GPGSA,A,3,01,02,03,04,05,06,07,08,09,10,11,12,1.0,1.0,1.0*30
$GPRMC,170506.727,A,1301.199,N,08015.172,E,208.1,152.3,140624,000.0,W*7C
$GPGGA,170507.727,1301.148,N,08015.199,E,1,12,1.0,0.0,M,0.0,M,,*6B
$GPGSA,A,3,01,02,03,04,05,06,07,08,09,10,11,12,1.0,1.0,1.0*30
$GPRMC,170507.727,A,1301.148,N,08015.199,E,134.3,137.0,140624,000.0,W*7A
$GPGGA,170508.727,1301.120,N,08015.225,E,1,12,1.0,0.0,M,0.0,M,,*6E
$GPGSA,A,3,01,02,03,04,05,06,07,08,09,10,11,12,1.0,1.0,1.0*30
$GPRMC,170508.727,A,1301.120,N,08015.225,E,143.6,118.4,140624,000.0,W*73
$GPGGA,170509.727,1301.101,N,08015.261,E,1,12,1.0,0.0,M,0.0,M,,*6C
$GPGSA,A,3,01,02,03,04,05,06,07,08,09,10,11,12,1.0,1.0,1.0*30
$GPRMC,170509.727,A,1301.101,N,08015.261,E,196.4,112.5,140624,000.0,W*70
$GPGGA,170510.727,1301.080,N,08015.313,E,1,12,1.0,0.0,M,0.0,M,,*68
$GPGSA,A,3,01,02,03,04,05,06,07,08,09,10,11,12,1.0,1.0,1.0*30
$GPRMC,170510.727,A,1301.080,N,08015.313,E,166.1,134.3,140624,000.0,W*7C
$GPGGA,170511.727,1301.047,N,08015.346,E,1,12,1.0,0.0,M,0.0,M,,*62
$GPGSA,A,3,01,02,03,04,05,06,07,08,09,10,11,12,1.0,1.0,1.0*30
$GPRMC,170511.727,A,1301.047,N,08015.346,E,726.8,030.3,140624,000.0,W*78
$GPGGA,170512.727,1301.222,N,08015.448,E,1,12,1.0,0.0,M,0.0,M,,*69
$GPGSA,A,3,01,02,03,04,05,06,07,08,09,10,11,12,1.0,1.0,1.0*30
$GPRMC,170512.727,A,1301.222,N,08015.448,E,244.9,240.8,140624,000.0,W*7D
$GPGGA,170513.727,1301.189,N,08015.388,E,1,12,1.0,0.0,M,0.0,M,,*61
$GPGSA,A,3,01,02,03,04,05,06,07,08,09,10,11,12,1.0,1.0,1.0*30
$GPRMC,170513.727,A,1301.189,N,08015.388,E,113.8,083.3,140624,000.0,W*73
$GPGGA,170514.727,1301.192,N,08015.420,E,1,12,1.0,0.0,M,0.0,M,,*69
$GPGSA,A,3,01,02,03,04,05,06,07,08,09,10,11,12,1.0,1.0,1.0*30
$GPRMC,170514.727,A,1301.192,N,08015.420,E,346.0,221.5,140624,000.0,W*7D
$GPGGA,170515.727,1301.120,N,08015.356,E,1,12,1.0,0.0,M,0.0,M,,*67
$GPGSA,A,3,01,02,03,04,05,06,07,08,09,10,11,12,1.0,1.0,1.0*30
$GPRMC,170515.727,A,1301.120,N,08015.356,E,072.8,172.7,140624,000.0,W*78
$GPGGA,170516.727,1301.100,N,08015.358,E,1,12,1.0,0.0,M,0.0,M,,*68
$GPGSA,A,3,01,02,03,04,05,06,07,08,09,10,11,12,1.0,1.0,1.0*30
$GPRMC,170516.727,A,1301.100,N,08015.358,E,066.6,229.0,140624,000.0,W*76
$GPGGA,170517.727,1301.087,N,08015.344,E,1,12,1.0,0.0,M,0.0,M,,*6A
$GPGSA,A,3,01,02,03,04,05,06,07,08,09,10,11,12,1.0,1.0,1.0*30
$GPRMC,170517.727,A,1301.087,N,08015.344,E,135.4,333.7,140624,000.0,W*7C
$GPGGA,170518.727,1301.121,N,08015.327,E,1,12,1.0,0.0,M,0.0,M,,*6D
$GPGSA,A,3,01,02,03,04,05,06,07,08,09,10,11,12,1.0,1.0,1.0*30
$GPRMC,170518.727,A,1301.121,N,08015.327,E,135.4,000.0,140624,000.0,W*7F
$GPGGA,170519.727,1301.121,N,08015.327,E,1,12,1.0,0.0,M,0.0,M,,*6C
$GPGSA,A,3,01,02,03,04,05,06,07,08,09,10,11,12,1.0,1.0,1.0*30
$GPRMC,170519.727,A,1301.121,N,08015.327,E,000.0,000.0,140624,000.0,W*7D
$GPGGA,170520.727,1301.121,N,08015.327,E,1,12,1.0,0.0,M,0.0,M,,*66
$GPGSA,A,3,01,02,03,04,05,06,07,08,09,10,11,12,1.0,1.0,1.0*30
$GPRMC,170520.727,A,1301.121,N,08015.327,E,119.3,294.1,140624,000.0,W*73
$GPGGA,170521.727,1301.135,N,08015.297,E,1,12,1.0,0.0,M,0.0,M,,*68
$GPGSA,A,3,01,02,03,04,05,06,07,08,09,10,11,12,1.0,1.0,1.0*30
$GPRMC,170521.727,A,1301.135,N,08015.297,E,132.9,350.0,140624,000.0,W*76
$GPGGA,170522.727,1301.171,N,08015.290,E,1,12,1.0,0.0,M,0.0,M,,*6C
$GPGSA,A,3,01,02,03,04,05,06,07,08,09,10,11,12,1.0,1.0,1.0*30
$GPRMC,170522.727,A,1301.171,N,08015.290,E,141.2,352.5,140624,000.0,W*7A
$GPGGA,170523.727,1301.210,N,08015.285,E,1,12,1.0,0.0,M,0.0,M,,*6D
$GPGSA,A,3,01,02,03,04,05,06,07,08,09,10,11,12,1.0,1.0,1.0*30
$GPRMC,170523.727,A,1301.210,N,08015.285,E,038.9,344.0,140624,000.0,W*7D
$GPGGA,170524.727,1301.221,N,08015.282,E,1,12,1.0,0.0,M,0.0,M,,*6F
$GPGSA,A,3,01,02,03,04,05,06,07,08,09,10,11,12,1.0,1.0,1.0*30
$GPRMC,170524.727,A,1301.221,N,08015.282,E,038.9,344.0,140624,000.0,W*7F
$GPGGA,170525.727,1301.231,N,08015.279,E,1,12,1.0,0.0,M,0.0,M,,*6B
$GPGSA,A,3,01,02,03,04,05,06,07,08,09,10,11,12,1.0,1.0,1.0*30
$GPRMC,170525.727,A,1301.231,N,08015.279,E,038.9,344.0,140624,000.0,W*7B
$GPGGA,170526.727,1301.241,N,08015.276,E,1,12,1.0,0.0,M,0.0,M,,*60
$GPGSA,A,3,01,02,03,04,05,06,07,08,09,10,11,12,1.0,1.0,1.0*30
$GPRMC,170526.727,A,1301.241,N,08015.276,E,038.9,344.0,140624,000.0,W*70
$GPGGA,170527.727,1301.252,N,08015.273,E,1,12,1.0,0.0,M,0.0,M,,*66
$GPGSA,A,3,01,02,03,04,05,06,07,08,09,10,11,12,1.0,1.0,1.0*30
$GPRMC,170527.727,A,1301.252,N,08015.273,E,038.9,344.0,140624,000.0,W*76
$GPGGA,170528.727,1301.262,N,08015.270,E,1,12,1.0,0.0,M,0.0,M,,*69
$GPGSA,A,3,01,02,03,04,05,06,07,08,09,10,11,12,1.0,1.0,1.0*30
$GPRMC,170528.727,A,1301.262,N,08015.270,E,038.9,344.0,140624,000.0,W*79
$GPGGA,170529.727,1301.272,N,08015.267,E,1,12,1.0,0.0,M,0.0,M,,*6F
$GPGSA,A,3,01,02,03,04,05,06,07,08,09,10,11,12,1.0,1.0,1.0*30
$GPRMC,170529.727,A,1301.272,N,08015.267,E,038.9,344.0,140624,000.0,W*7F
$GPGGA,170530.727,1301.283,N,08015.264,E,1,12,1.0,0.0,M,0.0,M,,*6A
$GPGSA,A,3,01,02,03,04,05,06,07,08,09,10,11,12,1.0,1.0,1.0*30
$GPRMC,170530.727,A,1301.283,N,08015.264,E,038.9,344.0,140624,000.0,W*7A
$GPGGA,170531.727,1301.293,N,08015.261,E,1,12,1.0,0.0,M,0.0,M,,*6F
$GPGSA,A,3,01,02,03,04,05,06,07,08,09,10,11,12,1.0,1.0,1.0*30
$GPRMC,170531.727,A,1301.293,N,08015.261,E,038.9,344.0,140624,000.0,W*7F
$GPGGA,170532.727,1301.304,N,08015.258,E,1,12,1.0,0.0,M,0.0,M,,*69
$GPGSA,A,3,01,02,03,04,05,06,07,08,09,10,11,12,1.0,1.0,1.0*30
$GPRMC,170532.727,A,1301.304,N,08015.258,E,038.9,344.0,140624,000.0,W*79
$GPGGA,170533.727,1301.314,N,08015.255,E,1,12,1.0,0.0,M,0.0,M,,*64
$GPGSA,A,3,01,02,03,04,05,06,07,08,09,10,11,12,1.0,1.0,1.0*30
$GPRMC,170533.727,A,1301.314,N,08015.255,E,038.9,344.0,140624,000.0,W*74
$GPGGA,170534.727,1301.324,N,08015.252,E,1,12,1.0,0.0,M,0.0,M,,*67
$GPGSA,A,3,01,02,03,04,05,06,07,08,09,10,11,12,1.0,1.0,1.0*30
$GPRMC,170534.727,A,1301.324,N,08015.252,E,038.9,344.0,140624,000.0,W*77
$GPGGA,170535.727,1301.335,N,08015.249,E,1,12,1.0,0.0,M,0.0,M,,*6C
$GPGSA,A,3,01,02,03,04,05,06,07,08,09,10,11,12,1.0,1.0,1.0*30
$GPRMC,170535.727,A,1301.335,N,08015.249,E,038.9,029.8,140624,000.0,W*7C
$GPGGA,170536.727,1301.344,N,08015.255,E,1,12,1.0,0.0,M,0.0,M,,*64
$GPGSA,A,3,01,02,03,04,05,06,07,08,09,10,11,12,1.0,1.0,1.0*30
$GPRMC,170536.727,A,1301.344,N,08015.255,E,038.9,029.8,140624,000.0,W*74
$GPGGA,170537.727,1301.354,N,08015.260,E,1,12,1.0,0.0,M,0.0,M,,*62
$GPGSA,A,3,01,02,03,04,05,06,07,08,09,10,11,12,1.0,1.0,1.0*30
$GPRMC,170537.727,A,1301.354,N,08015.260,E,038.9,029.8,140624,000.0,W*72
$GPGGA,170538.727,1301.363,N,08015.265,E,1,12,1.0,0.0,M,0.0,M,,*6C
$GPGSA,A,3,01,02,03,04,05,06,07,08,09,10,11,12,1.0,1.0,1.0*30
$GPRMC,170538.727,A,1301.363,N,08015.265,E,038.9,029.8,140624,000.0,W*7C
$GPGGA,170539.727,1301.373,N,08015.271,E,1,12,1.0,0.0,M,0.0,M,,*69
$GPGSA,A,3,01,02,03,04,05,06,07,08,09,10,11,12,1.0,1.0,1.0*30
$GPRMC,170539.727,A,1301.373,N,08015.271,E,038.9,029.8,140624,000.0,W*79
$GPGGA,170540.727,1301.382,N,08015.276,E,1,12,1.0,0.0,M,0.0,M,,*6E
$GPGSA,A,3,01,02,03,04,05,06,07,08,09,10,11,12,1.0,1.0,1.0*30
$GPRMC,170540.727,A,1301.382,N,08015.276,E,038.9,029.8,140624,000.0,W*7E
$GPGGA,170541.727,1301.391,N,08015.282,E,1,12,1.0,0.0,M,0.0,M,,*66
$GPGSA,A,3,01,02,03,04,05,06,07,08,09,10,11,12,1.0,1.0,1.0*30
$GPRMC,170541.727,A,1301.391,N,08015.282,E,038.9,029.8,140624,000.0,W*76
$GPGGA,170542.727,1301.401,N,08015.287,E,1,12,1.0,0.0,M,0.0,M,,*6E
$GPGSA,A,3,01,02,03,04,05,06,07,08,09,10,11,12,1.0,1.0,1.0*30
$GPRMC,170542.727,A,1301.401,N,08015.287,E,038.9,029.8,140624,000.0,W*7E
$GPGGA,170543.727,1301.410,N,08015.292,E,1,12,1.0,0.0,M,0.0,M,,*6B
$GPGSA,A,3,01,02,03,04,05,06,07,08,09,10,11,12,1.0,1.0,1.0*30
$GPRMC,170543.727,A,1301.410,N,08015.292,E,038.9,029.8,140624,000.0,W*7B
$GPGGA,170544.727,1301.420,N,08015.298,E,1,12,1.0,0.0,M,0.0,M,,*65
$GPGSA,A,3,01,02,03,04,05,06,07,08,09,10,11,12,1.0,1.0,1.0*30
$GPRMC,170544.727,A,1301.420,N,08015.298,E,038.9,029.8,140624,000.0,W*75
$GPGGA,170545.727,1301.429,N,08015.303,E,1,12,1.0,0.0,M,0.0,M,,*6E
$GPGSA,A,3,01,02,03,04,05,06,07,08,09,10,11,12,1.0,1.0,1.0*30
$GPRMC,170545.727,A,1301.429,N,08015.303,E,038.9,029.8,140624,000.0,W*7E
$GPGGA,170546.727,1301.438,N,08015.309,E,1,12,1.0,0.0,M,0.0,M,,*67
$GPGSA,A,3,01,02,03,04,05,06,07,08,09,10,11,12,1.0,1.0,1.0*30
$GPRMC,170546.727,A,1301.438,N,08015.309,E,038.9,029.8,140624,000.0,W*77
$GPGGA,170547.727,1301.448,N,08015.314,E,1,12,1.0,0.0,M,0.0,M,,*6D
$GPGSA,A,3,01,02,03,04,05,06,07,08,09,10,11,12,1.0,1.0,1.0*30
$GPRMC,170547.727,A,1301.448,N,08015.314,E,038.9,029.8,140624,000.0,W*7D
$GPGGA,170548.727,1301.457,N,08015.319,E,1,12,1.0,0.0,M,0.0,M,,*61
$GPGSA,A,3,01,02,03,04,05,06,07,08,09,10,11,12,1.0,1.0,1.0*30
$GPRMC,170548.727,A,1301.457,N,08015.319,E,038.9,029.8,140624,000.0,W*71
$GPGGA,170549.727,1301.467,N,08015.325,E,1,12,1.0,0.0,M,0.0,M,,*6C
$GPGSA,A,3,01,02,03,04,05,06,07,08,09,10,11,12,1.0,1.0,1.0*30
$GPRMC,170549.727,A,1301.467,N,08015.325,E,038.9,308.9,140624,000.0,W*7D
$GPGGA,170550.727,1301.474,N,08015.316,E,1,12,1.0,0.0,M,0.0,M,,*66
$GPGSA,A,3,01,02,03,04,05,06,07,08,09,10,11,12,1.0,1.0,1.0*30
$GPRMC,170550.727,A,1301.474,N,08015.316,E,038.9,308.9,140624,000.0,W*77
$GPGGA,170551.727,1301.481,N,08015.308,E,1,12,1.0,0.0,M,0.0,M,,*62
$GPGSA,A,3,01,02,03,04,05,06,07,08,09,10,11,12,1.0,1.0,1.0*30
$GPRMC,170551.727,A,1301.481,N,08015.308,E,038.9,308.9,140624,000.0,W*73
$GPGGA,170552.727,1301.487,N,08015.299,E,1,12,1.0,0.0,M,0.0,M,,*6E
$GPGSA,A,3,01,02,03,04,05,06,07,08,09,10,11,12,1.0,1.0,1.0*30
$GPRMC,170552.727,A,1301.487,N,08015.299,E,038.9,308.9,140624,000.0,W*7F
$GPGGA,170553.727,1301.494,N,08015.291,E,1,12,1.0,0.0,M,0.0,M,,*65
$GPGSA,A,3,01,02,03,04,05,06,07,08,09,10,11,12,1.0,1.0,1.0*30
$GPRMC,170553.727,A,1301.494,N,08015.291,E,038.9,186.5,140624,000.0,W*7C
$GPGGA,170554.727,1301.484,N,08015.290,E,1,12,1.0,0.0,M,0.0,M,,*62
$GPGSA,A,3,01,02,03,04,05,06,07,08,09,10,11,12,1.0,1.0,1.0*30
$GPRMC,170554.727,A,1301.484,N,08015.290,E,038.9,186.5,140624,000.0,W*7B
$GPGGA,170555.727,1301.473,N,08015.288,E,1,12,1.0,0.0,M,0.0,M,,*62
$GPGSA,A,3,01,02,03,04,05,06,07,08,09,10,11,12,1.0,1.0,1.0*30
$GPRMC,170555.727,A,1301.473,N,08015.288,E,038.9,186.5,140624,000.0,W*7B
$GPGGA,170556.727,1301.462,N,08015.287,E,1,12,1.0,0.0,M,0.0,M,,*6E
$GPGSA,A,3,01,02,03,04,05,06,07,08,09,10,11,12,1.0,1.0,1.0*30
$GPRMC,170556.727,A,1301.462,N,08015.287,E,038.9,211.0,140624,000.0,W*7F
$GPGGA,170557.727,1301.453,N,08015.281,E,1,12,1.0,0.0,M,0.0,M,,*6B
$GPGSA,A,3,01,02,03,04,05,06,07,08,09,10,11,12,1.0,1.0,1.0*30
$GPRMC,170557.727,A,1301.453,N,08015.281,E,038.9,211.0,140624,000.0,W*7A
$GPGGA,170558.727,1301.443,N,08015.276,E,1,12,1.0,0.0,M,0.0,M,,*6D
$GPGSA,A,3,01,02,03,04,05,06,07,08,09,10,11,12,1.0,1.0,1.0*30
$GPRMC,170558.727,A,1301.443,N,08015.276,E,038.9,211.0,140624,000.0,W*7C
$GPGGA,170559.727,1301.434,N,08015.270,E,1,12,1.0,0.0,M,0.0,M,,*6A
$GPGSA,A,3,01,02,03,04,05,06,07,08,09,10,11,12,1.0,1.0,1.0*30
$GPRMC,170559.727,A,1301.434,N,08015.270,E,038.9,211.0,140624,000.0,W*7B
$GPGGA,170600.727,1301.425,N,08015.265,E,1,12,1.0,0.0,M,0.0,M,,*61
$GPGSA,A,3,01,02,03,04,05,06,07,08,09,10,11,12,1.0,1.0,1.0*30
$GPRMC,170600.727,A,1301.425,N,08015.265,E,038.9,202.3,140624,000.0,W*71
$GPGGA,170601.727,1301.415,N,08015.261,E,1,12,1.0,0.0,M,0.0,M,,*67
$GPGSA,A,3,01,02,03,04,05,06,07,08,09,10,11,12,1.0,1.0,1.0*30
$GPRMC,170601.727,A,1301.415,N,08015.261,E,038.9,202.3,140624,000.0,W*77
$GPGGA,170602.727,1301.405,N,08015.256,E,1,12,1.0,0.0,M,0.0,M,,*61
$GPGSA,A,3,01,02,03,04,05,06,07,08,09,10,11,12,1.0,1.0,1.0*30
$GPRMC,170602.727,A,1301.405,N,08015.256,E,038.9,202.3,140624,000.0,W*71
$GPGGA,170603.727,1301.395,N,08015.252,E,1,12,1.0,0.0,M,0.0,M,,*6A
$GPGSA,A,3,01,02,03,04,05,06,07,08,09,10,11,12,1.0,1.0,1.0*30
$GPRMC,170603.727,A,1301.395,N,08015.252,E,038.9,202.3,140624,000.0,W*7A
$GPGGA,170604.727,1301.385,N,08015.248,E,1,12,1.0,0.0,M,0.0,M,,*67
$GPGSA,A,3,01,02,03,04,05,06,07,08,09,10,11,12,1.0,1.0,1.0*30
$GPRMC,170604.727,A,1301.385,N,08015.248,E,038.9,202.3,140624,000.0,W*77
$GPGGA,170605.727,1301.375,N,08015.244,E,1,12,1.0,0.0,M,0.0,M,,*65
$GPGSA,A,3,01,02,03,04,05,06,07,08,09,10,11,12,1.0,1.0,1.0*30
$GPRMC,170605.727,A,1301.375,N,08015.244,E,038.9,202.3,140624,000.0,W*75
$GPGGA,170606.727,1301.365,N,08015.240,E,1,12,1.0,0.0,M,0.0,M,,*63
$GPGSA,A,3,01,02,03,04,05,06,07,08,09,10,11,12,1.0,1.0,1.0*30
$GPRMC,170606.727,A,1301.365,N,08015.240,E,038.9,202.3,140624,000.0,W*73
$GPGGA,170607.727,1301.355,N,08015.236,E,1,12,1.0,0.0,M,0.0,M,,*60
$GPGSA,A,3,01,02,03,04,05,06,07,08,09,10,11,12,1.0,1.0,1.0*30
$GPRMC,170607.727,A,1301.355,N,08015.236,E,038.9,202.3,140624,000.0,W*70
$GPGGA,170608.727,1301.345,N,08015.232,E,1,12,1.0,0.0,M,0.0,M,,*6A
$GPGSA,A,3,01,02,03,04,05,06,07,08,09,10,11,12,1.0,1.0,1.0*30
$GPRMC,170608.727,A,1301.345,N,08015.232,E,038.9,202.3,140624,000.0,W*7A
$GPGGA,170609.727,1301.335,N,08015.228,E,1,12,1.0,0.0,M,0.0,M,,*67
$GPGSA,A,3,01,02,03,04,05,06,07,08,09,10,11,12,1.0,1.0,1.0*30
$GPRMC,170609.727,A,1301.335,N,08015.228,E,038.9,166.2,140624,000.0,W*77
$GPGGA,170610.727,1301.324,N,08015.230,E,1,12,1.0,0.0,M,0.0,M,,*66
$GPGSA,A,3,01,02,03,04,05,06,07,08,09,10,11,12,1.0,1.0,1.0*30
$GPRMC,170610.727,A,1301.324,N,08015.230,E,038.9,166.2,140624,000.0,W*76
$GPGGA,170611.727,1301.314,N,08015.233,E,1,12,1.0,0.0,M,0.0,M,,*67
$GPGSA,A,3,01,02,03,04,05,06,07,08,09,10,11,12,1.0,1.0,1.0*30
$GPRMC,170611.727,A,1301.314,N,08015.233,E,038.9,166.2,140624,000.0,W*77
$GPGGA,170612.727,1301.303,N,08015.235,E,1,12,1.0,0.0,M,0.0,M,,*64
$GPGSA,A,3,01,02,03,04,05,06,07,08,09,10,11,12,1.0,1.0,1.0*30
$GPRMC,170612.727,A,1301.303,N,08015.235,E,038.9,166.2,140624,000.0,W*74
$GPGGA,170613.727,1301.293,N,08015.238,E,1,12,1.0,0.0,M,0.0,M,,*60
$GPGSA,A,3,01,02,03,04,05,06,07,08,09,10,11,12,1.0,1.0,1.0*30
$GPRMC,170613.727,A,1301.293,N,08015.238,E,038.9,166.2,140624,000.0,W*70
$GPGGA,170614.727,1301.282,N,08015.241,E,1,12,1.0,0.0,M,0.0,M,,*69
$GPGSA,A,3,01,02,03,04,05,06,07,08,09,10,11,12,1.0,1.0,1.0*30
$GPRMC,170614.727,A,1301.282,N,08015.241,E,038.9,166.2,140624,000.0,W*79
$GPGGA,170615.727,1301.272,N,08015.243,E,1,12,1.0,0.0,M,0.0,M,,*65
$GPGSA,A,3,01,02,03,04,05,06,07,08,09,10,11,12,1.0,1.0,1.0*30
$GPRMC,170615.727,A,1301.272,N,08015.243,E,038.9,166.2,140624,000.0,W*75
$GPGGA,170616.727,1301.261,N,08015.246,E,1,12,1.0,0.0,M,0.0,M,,*61
$GPGSA,A,3,01,02,03,04,05,06,07,08,09,10,11,12,1.0,1.0,1.0*30
$GPRMC,170616.727,A,1301.261,N,08015.246,E,038.9,166.2,140624,000.0,W*71
$GPGGA,170617.727,1301.251,N,08015.248,E,1,12,1.0,0.0,M,0.0,M,,*6D
$GPGSA,A,3,01,02,03,04,05,06,07,08,09,10,11,12,1.0,1.0,1.0*30
$GPRMC,170617.727,A,1301.251,N,08015.248,E,038.9,169.5,140624,000.0,W*75
$GPGGA,170618.727,1301.240,N,08015.250,E,1,12,1.0,0.0,M,0.0,M,,*6B
$GPGSA,A,3,01,02,03,04,05,06,07,08,09,10,11,12,1.0,1.0,1.0*30
$GPRMC,170618.727,A,1301.240,N,08015.250,E,038.9,169.5,140624,000.0,W*73
$GPGGA,170619.727,1301.229,N,08015.252,E,1,12,1.0,0.0,M,0.0,M,,*67
$GPGSA,A,3,01,02,03,04,05,06,07,08,09,10,11,12,1.0,1.0,1.0*30
$GPRMC,170619.727,A,1301.229,N,08015.252,E,038.9,169.5,140624,000.0,W*7F
$GPGGA,170620.727,1301.219,N,08015.254,E,1,12,1.0,0.0,M,0.0,M,,*68
$GPGSA,A,3,01,02,03,04,05,06,07,08,09,10,11,12,1.0,1.0,1.0*30
$GPRMC,170620.727,A,1301.219,N,08015.254,E,038.9,169.5,140624,000.0,W*70
$GPGGA,170621.727,1301.208,N,08015.256,E,1,12,1.0,0.0,M,0.0,M,,*6B
$GPGSA,A,3,01,02,03,04,05,06,07,08,09,10,11,12,1.0,1.0,1.0*30
$GPRMC,170621.727,A,1301.208,N,08015.256,E,038.9,169.5,140624,000.0,W*73
$GPGGA,170622.727,1301.198,N,08015.258,E,1,12,1.0,0.0,M,0.0,M,,*6C
$GPGSA,A,3,01,02,03,04,05,06,07,08,09,10,11,12,1.0,1.0,1.0*30
$GPRMC,170622.727,A,1301.198,N,08015.258,E,038.9,152.9,140624,000.0,W*70
$GPGGA,170623.727,1301.188,N,08015.263,E,1,12,1.0,0.0,M,0.0,M,,*64
$GPGSA,A,3,01,02,03,04,05,06,07,08,09,10,11,12,1.0,1.0,1.0*30
$GPRMC,170623.727,A,1301.188,N,08015.263,E,038.9,152.9,140624,000.0,W*78
$GPGGA,170624.727,1301.178,N,08015.268,E,1,12,1.0,0.0,M,0.0,M,,*67
$GPGSA,A,3,01,02,03,04,05,06,07,08,09,10,11,12,1.0,1.0,1.0*30
$GPRMC,170624.727,A,1301.178,N,08015.268,E,038.9,152.9,140624,000.0,W*7B
$GPGGA,170625.727,1301.169,N,08015.273,E,1,12,1.0,0.0,M,0.0,M,,*6C
$GPGSA,A,3,01,02,03,04,05,06,07,08,09,10,11,12,1.0,1.0,1.0*30
$GPRMC,170625.727,A,1301.169,N,08015.273,E,038.9,152.9,140624,000.0,W*70
$GPGGA,170626.727,1301.159,N,08015.278,E,1,12,1.0,0.0,M,0.0,M,,*67
$GPGSA,A,3,01,02,03,04,05,06,07,08,09,10,11,12,1.0,1.0,1.0*30
$GPRMC,170626.727,A,1301.159,N,08015.278,E,038.9,152.9,140624,000.0,W*7B
$GPGGA,170627.727,1301.149,N,08015.283,E,1,12,1.0,0.0,M,0.0,M,,*63
$GPGSA,A,3,01,02,03,04,05,06,07,08,09,10,11,12,1.0,1.0,1.0*30
$GPRMC,170627.727,A,1301.149,N,08015.283,E,038.9,152.9,140624,000.0,W*7F
$GPGGA,170628.727,1301.140,N,08015.288,E,1,12,1.0,0.0,M,0.0,M,,*6E
$GPGSA,A,3,01,02,03,04,05,06,07,08,09,10,11,12,1.0,1.0,1.0*30
$GPRMC,170628.727,A,1301.140,N,08015.288,E,038.9,152.9,140624,000.0,W*72
$GPGGA,170629.727,1301.130,N,08015.293,E,1,12,1.0,0.0,M,0.0,M,,*62
$GPGSA,A,3,01,02,03,04,05,06,07,08,09,10,11,12,1.0,1.0,1.0*30
$GPRMC,170629.727,A,1301.130,N,08015.293,E,038.9,152.9,140624,000.0,W*7E
$GPGGA,170630.727,1301.120,N,08015.298,E,1,12,1.0,0.0,M,0.0,M,,*60
$GPGSA,A,3,01,02,03,04,05,06,07,08,09,10,11,12,1.0,1.0,1.0*30
$GPRMC,170630.727,A,1301.120,N,08015.298,E,038.9,152.9,140624,000.0,W*7C
$GPGGA,170631.727,1301.111,N,08015.303,E,1,12,1.0,0.0,M,0.0,M,,*60
$GPGSA,A,3,01,02,03,04,05,06,07,08,09,10,11,12,1.0,1.0,1.0*30
$GPRMC,170631.727,A,1301.111,N,08015.303,E,038.9,309.9,140624,000.0,W*70
$GPGGA,170632.727,1301.118,N,08015.294,E,1,12,1.0,0.0,M,0.0,M,,*65
$GPGSA,A,3,01,02,03,04,05,06,07,08,09,10,11,12,1.0,1.0,1.0*30
$GPRMC,170632.727,A,1301.118,N,08015.294,E,038.9,309.9,140624,000.0,W*75
$GPGGA,170633.727,1301.125,N,08015.286,E,1,12,1.0,0.0,M,0.0,M,,*69
$GPGSA,A,3,01,02,03,04,05,06,07,08,09,10,11,12,1.0,1.0,1.0*30
$GPRMC,170633.727,A,1301.125,N,08015.286,E,038.9,309.9,140624,000.0,W*79
$GPGGA,170634.727,1301.132,N,08015.277,E,1,12,1.0,0.0,M,0.0,M,,*66
$GPGSA,A,3,01,02,03,04,05,06,07,08,09,10,11,12,1.0,1.0,1.0*30
$GPRMC,170634.727,A,1301.132,N,08015.277,E,038.9,309.9,140624,000.0,W*76
$GPGGA,170635.727,1301.139,N,08015.269,E,1,12,1.0,0.0,M,0.0,M,,*63
$GPGSA,A,3,01,02,03,04,05,06,07,08,09,10,11,12,1.0,1.0,1.0*30
$GPRMC,170635.727,A,1301.139,N,08015.269,E,038.9,309.9,140624,000.0,W*73
$GPGGA,170636.727,1301.146,N,08015.261,E,1,12,1.0,0.0,M,0.0,M,,*60
$GPGSA,A,3,01,02,03,04,05,06,07,08,09,10,11,12,1.0,1.0,1.0*30
$GPRMC,170636.727,A,1301.146,N,08015.261,E,038.9,309.9,140624,000.0,W*70
$GPGGA,170637.727,1301.153,N,08015.252,E,1,12,1.0,0.0,M,0.0,M,,*65
$GPGSA,A,3,01,02,03,04,05,06,07,08,09,10,11,12,1.0,1.0,1.0*30
$GPRMC,170637.727,A,1301.153,N,08015.252,E,038.9,309.9,140624,000.0,W*75
$GPGGA,170638.727,1301.160,N,08015.244,E,1,12,1.0,0.0,M,0.0,M,,*6D
$GPGSA,A,3,01,02,03,04,05,06,07,08,09,10,11,12,1.0,1.0,1.0*30
$GPRMC,170638.727,A,1301.160,N,08015.244,E,038.9,330.6,140624,000.0,W*78
$GPGGA,170639.727,1301.169,N,08015.238,E,1,12,1.0,0.0,M,0.0,M,,*6E
$GPGSA,A,3,01,02,03,04,05,06,07,08,09,10,11,12,1.0,1.0,1.0*30
$GPRMC,170639.727,A,1301.169,N,08015.238,E,038.9,330.6,140624,000.0,W*7B
$GPGGA,170640.727,1301.179,N,08015.233,E,1,12,1.0,0.0,M,0.0,M,,*6A
$GPGSA,A,3,01,02,03,04,05,06,07,08,09,10,11,12,1.0,1.0,1.0*30
$GPRMC,170640.727,A,1301.179,N,08015.233,E,038.9,330.6,140624,000.0,W*7F
$GPGGA,170641.727,1301.188,N,08015.228,E,1,12,1.0,0.0,M,0.0,M,,*6F
$GPGSA,A,3,01,02,03,04,05,06,07,08,09,10,11,12,1.0,1.0,1.0*30
$GPRMC,170641.727,A,1301.188,N,08015.228,E,038.9,330.6,140624,000.0,W*7A
$GPGGA,170642.727,1301.198,N,08015.222,E,1,12,1.0,0.0,M,0.0,M,,*67
$GPGSA,A,3,01,02,03,04,05,06,07,08,09,10,11,12,1.0,1.0,1.0*30
$GPRMC,170642.727,A,1301.198,N,08015.222,E,038.9,330.6,140624,000.0,W*72
$GPGGA,170643.727,1301.207,N,08015.217,E,1,12,1.0,0.0,M,0.0,M,,*65
$GPGSA,A,3,01,02,03,04,05,06,07,08,09,10,11,12,1.0,1.0,1.0*30
$GPRMC,170643.727,A,1301.207,N,08015.217,E,038.9,330.6,140624,000.0,W*70
$GPGGA,170644.727,1301.217,N,08015.212,E,1,12,1.0,0.0,M,0.0,M,,*66
$GPGSA,A,3,01,02,03,04,05,06,07,08,09,10,11,12,1.0,1.0,1.0*30
$GPRMC,170644.727,A,1301.217,N,08015.212,E,038.9,330.6,140624,000.0,W*73
$GPGGA,170645.727,1301.226,N,08015.206,E,1,12,1.0,0.0,M,0.0,M,,*60
$GPGSA,A,3,01,02,03,04,05,06,07,08,09,10,11,12,1.0,1.0,1.0*30
$GPRMC,170645.727,A,1301.226,N,08015.206,E,038.9,353.2,140624,000.0,W*74
$GPGGA,170646.727,1301.237,N,08015.205,E,1,12,1.0,0.0,M,0.0,M,,*60
$GPGSA,A,3,01,02,03,04,05,06,07,08,09,10,11,12,1.0,1.0,1.0*30
$GPRMC,170646.727,A,1301.237,N,08015.205,E,038.9,353.2,140624,000.0,W*74
$GPGGA,170647.727,1301.247,N,08015.204,E,1,12,1.0,0.0,M,0.0,M,,*67
$GPGSA,A,3,01,02,03,04,05,06,07,08,09,10,11,12,1.0,1.0,1.0*30
$GPRMC,170647.727,A,1301.247,N,08015.204,E,038.9,353.2,140624,000.0,W*73
$GPGGA,170648.727,1301.258,N,08015.202,E,1,12,1.0,0.0,M,0.0,M,,*60
$GPGSA,A,3,01,02,03,04,05,06,07,08,09,10,11,12,1.0,1.0,1.0*30
$GPRMC,170648.727,A,1301.258,N,08015.202,E,038.9,353.2,140624,000.0,W*74
$GPGGA,170649.727,1301.269,N,08015.201,E,1,12,1.0,0.0,M,0.0,M,,*60
$GPGSA,A,3,01,02,03,04,05,06,07,08,09,10,11,12,1.0,1.0,1.0*30
$GPRMC,170649.727,A,1301.269,N,08015.201,E,038.9,353.2,140624,000.0,W*74
$GPGGA,170650.727,1301.280,N,08015.200,E,1,12,1.0,0.0,M,0.0,M,,*6E
$GPGSA,A,3,01,02,03,04,05,06,07,08,09,10,11,12,1.0,1.0,1.0*30
$GPRMC,170650.727,A,1301.280,N,08015.200,E,038.9,353.2,140624,000.0,W*7A
$GPGGA,170651.727,1301.290,N,08015.199,E,1,12,1.0,0.0,M,0.0,M,,*6D
$GPGSA,A,3,01,02,03,04,05,06,07,08,09,10,11,12,1.0,1.0,1.0*30
$GPRMC,170651.727,A,1301.290,N,08015.199,E,038.9,353.2,140624,000.0,W*79
$GPGGA,170652.727,1301.301,N,08015.197,E,1,12,1.0,0.0,M,0.0,M,,*69
$GPGSA,A,3,01,02,03,04,05,06,07,08,09,10,11,12,1.0,1.0,1.0*30
$GPRMC,170652.727,A,1301.301,N,08015.197,E,038.9,008.0,140624,000.0,W*72
$GPGGA,170653.727,1301.312,N,08015.199,E,1,12,1.0,0.0,M,0.0,M,,*64
$GPGSA,A,3,01,02,03,04,05,06,07,08,09,10,11,12,1.0,1.0,1.0*30
$GPRMC,170653.727,A,1301.312,N,08015.199,E,038.9,008.0,140624,000.0,W*7F
$GPGGA,170654.727,1301.322,N,08015.200,E,1,12,1.0,0.0,M,0.0,M,,*63
$GPGSA,A,3,01,02,03,04,05,06,07,08,09,10,11,12,1.0,1.0,1.0*30
$GPRMC,170654.727,A,1301.322,N,08015.200,E,038.9,008.0,140624,000.0,W*78
$GPGGA,170655.727,1301.333,N,08015.202,E,1,12,1.0,0.0,M,0.0,M,,*60
$GPGSA,A,3,01,02,03,04,05,06,07,08,09,10,11,12,1.0,1.0,1.0*30
$GPRMC,170655.727,A,1301.333,N,08015.202,E,038.9,008.0,140624,000.0,W*7B
$GPGGA,170656.727,1301.344,N,08015.203,E,1,12,1.0,0.0,M,0.0,M,,*62
$GPGSA,A,3,01,02,03,04,05,06,07,08,09,10,11,12,1.0,1.0,1.0*30
$GPRMC,170656.727,A,1301.344,N,08015.203,E,038.9,008.0,140624,000.0,W*79
$GPGGA,170657.727,1301.355,N,08015.205,E,1,12,1.0,0.0,M,0.0,M,,*65
$GPGSA,A,3,01,02,03,04,05,06,07,08,09,10,11,12,1.0,1.0,1.0*30
$GPRMC,170657.727,A,1301.355,N,08015.205,E,038.9,008.0,140624,000.0,W*7E
$GPGGA,170658.727,1301.365,N,08015.206,E,1,12,1.0,0.0,M,0.0,M,,*6A
$GPGSA,A,3,01,02,03,04,05,06,07,08,09,10,11,12,1.0,1.0,1.0*30
$GPRMC,170658.727,A,1301.365,N,08015.206,E,038.9,008.0,140624,000.0,W*71
$GPGGA,170659.727,1301.376,N,08015.208,E,1,12,1.0,0.0,M,0.0,M,,*67
$GPGSA,A,3,01,02,03,04,05,06,07,08,09,10,11,12,1.0,1.0,1.0*30
$GPRMC,170659.727,A,1301.376,N,08015.208,E,038.9,008.0,140624,000.0,W*7C
$GPGGA,170700.727,1301.387,N,08015.209,E,1,12,1.0,0.0,M,0.0,M,,*65
$GPGSA,A,3,01,02,03,04,05,06,07,08,09,10,11,12,1.0,1.0,1.0*30
$GPRMC,170700.727,A,1301.387,N,08015.209,E,038.9,008.0,140624,000.0,W*7E
$GPGGA,170701.727,1301.397,N,08015.211,E,1,12,1.0,0.0,M,0.0,M,,*6C
$GPGSA,A,3,01,02,03,04,05,06,07,08,09,10,11,12,1.0,1.0,1.0*30
$GPRMC,170701.727,A,1301.397,N,08015.211,E,038.9,008.0,140624,000.0,W*77
$GPGGA,170702.727,1301.408,N,08015.212,E,1,12,1.0,0.0,M,0.0,M,,*6D
$GPGSA,A,3,01,02,03,04,05,06,07,08,09,10,11,12,1.0,1.0,1.0*30
$GPRMC,170702.727,A,1301.408,N,08015.212,E,038.9,008.0,140624,000.0,W*76
$GPGGA,170703.727,1301.419,N,08015.214,E,1,12,1.0,0.0,M,0.0,M,,*6A
$GPGSA,A,3,01,02,03,04,05,06,07,08,09,10,11,12,1.0,1.0,1.0*30
$GPRMC,170703.727,A,1301.419,N,08015.214,E,038.9,008.0,140624,000.0,W*71
$GPGGA,170704.727,1301.429,N,08015.215,E,1,12,1.0,0.0,M,0.0,M,,*6F
$GPGSA,A,3,01,02,03,04,05,06,07,08,09,10,11,12,1.0,1.0,1.0*30
$GPRMC,170704.727,A,1301.429,N,08015.215,E,038.9,008.0,140624,000.0,W*74
$GPGGA,170705.727,1301.440,N,08015.217,E,1,12,1.0,0.0,M,0.0,M,,*63
$GPGSA,A,3,01,02,03,04,05,06,07,08,09,10,11,12,1.0,1.0,1.0*30
$GPRMC,170705.727,A,1301.440,N,08015.217,E,038.9,031.1,140624,000.0,W*73
$GPGGA,170706.727,1301.449,N,08015.222,E,1,12,1.0,0.0,M,0.0,M,,*6F
$GPGSA,A,3,01,02,03,04,05,06,07,08,09,10,11,12,1.0,1.0,1.0*30
$GPRMC,170706.727,A,1301.449,N,08015.222,E,038.9,031.1,140624,000.0,W*7F
$GPGGA,170707.727,1301.459,N,08015.228,E,1,12,1.0,0.0,M,0.0,M,,*65
$GPGSA,A,3,01,02,03,04,05,06,07,08,09,10,11,12,1.0,1.0,1.0*30
$GPRMC,170707.727,A,1301.459,N,08015.228,E,038.9,031.1,140624,000.0,W*75
$GPGGA,170708.727,1301.468,N,08015.234,E,1,12,1.0,0.0,M,0.0,M,,*65
$GPGSA,A,3,01,02,03,04,05,06,07,08,09,10,11,12,1.0,1.0,1.0*30
$GPRMC,170708.727,A,1301.468,N,08015.234,E,038.9,031.1,140624,000.0,W*75
$GPGGA,170709.727,1301.477,N,08015.239,E,1,12,1.0,0.0,M,0.0,M,,*67
$GPGSA,A,3,01,02,03,04,05,06,07,08,09,10,11,12,1.0,1.0,1.0*30
$GPRMC,170709.727,A,1301.477,N,08015.239,E,038.9,031.1,140624,000.0,W*77
$GPGGA,170710.727,1301.487,N,08015.245,E,1,12,1.0,0.0,M,0.0,M,,*6B
$GPGSA,A,3,01,02,03,04,05,06,07,08,09,10,11,12,1.0,1.0,1.0*30
$GPRMC,170710.727,A,1301.487,N,08015.245,E,038.9,031.1,140624,000.0,W*7B
$GPGGA,170711.727,1301.496,N,08015.251,E,1,12,1.0,0.0,M,0.0,M,,*6F
$GPGSA,A,3,01,02,03,04,05,06,07,08,09,10,11,12,1.0,1.0,1.0*30
$GPRMC,170711.727,A,1301.496,N,08015.251,E,038.9,031.1,140624,000.0,W*7F
$GPGGA,170712.727,1301.505,N,08015.256,E,1,12,1.0,0.0,M,0.0,M,,*60
$GPGSA,A,3,01,02,03,04,05,06,07,08,09,10,11,12,1.0,1.0,1.0*30
$GPRMC,170712.727,A,1301.505,N,08015.256,E,038.9,102.0,140624,000.0,W*70
$GPGGA,170713.727,1301.503,N,08015.267,E,1,12,1.0,0.0,M,0.0,M,,*65
$GPGSA,A,3,01,02,03,04,05,06,07,08,09,10,11,12,1.0,1.0,1.0*30
$GPRMC,170713.727,A,1301.503,N,08015.267,E,038.9,102.0,140624,000.0,W*75
$GPGGA,170714.727,1301.501,N,08015.278,E,1,12,1.0,0.0,M,0.0,M,,*6E
$GPGSA,A,3,01,02,03,04,05,06,07,08,09,10,11,12,1.0,1.0,1.0*30
$GPRMC,170714.727,A,1301.501,N,08015.278,E,038.9,102.0,140624,000.0,W*7E
$GPGGA,170715.727,1301.498,N,08015.289,E,1,12,1.0,0.0,M,0.0,M,,*60
$GPGSA,A,3,01,02,03,04,05,06,07,08,09,10,11,12,1.0,1.0,1.0*30
$GPRMC,170715.727,A,1301.498,N,08015.289,E,038.9,102.0,140624,000.0,W*70
$GPGGA,170716.727,1301.496,N,08015.299,E,1,12,1.0,0.0,M,0.0,M,,*6C
$GPGSA,A,3,01,02,03,04,05,06,07,08,09,10,11,12,1.0,1.0,1.0*30
$GPRMC,170716.727,A,1301.496,N,08015.299,E,038.9,102.0,140624,000.0,W*7C
$GPGGA,170717.727,1301.494,N,08015.310,E,1,12,1.0,0.0,M,0.0,M,,*6F
$GPGSA,A,3,01,02,03,04,05,06,07,08,09,10,11,12,1.0,1.0,1.0*30
$GPRMC,170717.727,A,1301.494,N,08015.310,E,038.9,102.0,140624,000.0,W*7F
$GPGGA,170718.727,1301.491,N,08015.321,E,1,12,1.0,0.0,M,0.0,M,,*67
$GPGSA,A,3,01,02,03,04,05,06,07,08,09,10,11,12,1.0,1.0,1.0*30
$GPRMC,170718.727,A,1301.491,N,08015.321,E,038.9,102.0,140624,000.0,W*77
$GPGGA,170719.727,1301.489,N,08015.332,E,1,12,1.0,0.0,M,0.0,M,,*6D
$GPGSA,A,3,01,02,03,04,05,06,07,08,09,10,11,12,1.0,1.0,1.0*30
$GPRMC,170719.727,A,1301.489,N,08015.332,E,038.9,102.0,140624,000.0,W*7D
$GPGGA,170720.727,1301.487,N,08015.343,E,1,12,1.0,0.0,M,0.0,M,,*6F
$GPGSA,A,3,01,02,03,04,05,06,07,08,09,10,11,12,1.0,1.0,1.0*30
$GPRMC,170720.727,A,1301.487,N,08015.343,E,038.9,102.0,140624,000.0,W*7F
$GPGGA,170721.727,1301.485,N,08015.354,E,1,12,1.0,0.0,M,0.0,M,,*6A
$GPGSA,A,3,01,02,03,04,05,06,07,08,09,10,11,12,1.0,1.0,1.0*30
$GPRMC,170721.727,A,1301.485,N,08015.354,E,038.9,204.5,140624,000.0,W*7A
$GPGGA,170722.727,1301.475,N,08015.349,E,1,12,1.0,0.0,M,0.0,M,,*6A
$GPGSA,A,3,01,02,03,04,05,06,07,08,09,10,11,12,1.0,1.0,1.0*30
$GPRMC,170722.727,A,1301.475,N,08015.349,E,038.9,204.5,140624,000.0,W*7A
$GPGGA,170723.727,1301.465,N,08015.345,E,1,12,1.0,0.0,M,0.0,M,,*66
$GPGSA,A,3,01,02,03,04,05,06,07,08,09,10,11,12,1.0,1.0,1.0*30
$GPRMC,170723.727,A,1301.465,N,08015.345,E,038.9,204.5,140624,000.0,W*76
$GPGGA,170724.727,1301.455,N,08015.340,E,1,12,1.0,0.0,M,0.0,M,,*67
$GPGSA,A,3,01,02,03,04,05,06,07,08,09,10,11,12,1.0,1.0,1.0*30
$GPRMC,170724.727,A,1301.455,N,08015.340,E,038.9,204.5,140624,000.0,W*77
$GPGGA,170725.727,1301.445,N,08015.336,E,1,12,1.0,0.0,M,0.0,M,,*66
$GPGSA,A,3,01,02,03,04,05,06,07,08,09,10,11,12,1.0,1.0,1.0*30
$GPRMC,170725.727,A,1301.445,N,08015.336,E,038.9,204.5,140624,000.0,W*76
$GPGGA,170726.727,1301.435,N,08015.331,E,1,12,1.0,0.0,M,0.0,M,,*65
$GPGSA,A,3,01,02,03,04,05,06,07,08,09,10,11,12,1.0,1.0,1.0*30
$GPRMC,170726.727,A,1301.435,N,08015.331,E,038.9,204.5,140624,000.0,W*75
$GPGGA,170727.727,1301.425,N,08015.327,E,1,12,1.0,0.0,M,0.0,M,,*62
$GPGSA,A,3,01,02,03,04,05,06,07,08,09,10,11,12,1.0,1.0,1.0*30
$GPRMC,170727.727,A,1301.425,N,08015.327,E,038.9,204.5,140624,000.0,W*72
$GPGGA,170728.727,1301.415,N,08015.322,E,1,12,1.0,0.0,M,0.0,M,,*6B
$GPGSA,A,3,01,02,03,04,05,06,07,08,09,10,11,12,1.0,1.0,1.0*30
$GPRMC,170728.727,A,1301.415,N,08015.322,E,038.9,204.5,140624,000.0,W*7B
$GPGGA,170729.727,1301.406,N,08015.318,E,1,12,1.0,0.0,M,0.0,M,,*61
$GPGSA,A,3,01,02,03,04,05,06,07,08,09,10,11,12,1.0,1.0,1.0*30
$GPRMC,170729.727,A,1301.406,N,08015.318,E,038.9,204.5,140624,000.0,W*71
$GPGGA,170730.727,1301.396,N,08015.313,E,1,12,1.0,0.0,M,0.0,M,,*6C
$GPGSA,A,3,01,02,03,04,05,06,07,08,09,10,11,12,1.0,1.0,1.0*30
$GPRMC,170730.727,A,1301.396,N,08015.313,E,038.9,204.5,140624,000.0,W*7C
$GPGGA,170731.727,1301.386,N,08015.309,E,1,12,1.0,0.0,M,0.0,M,,*67
$GPGSA,A,3,01,02,03,04,05,06,07,08,09,10,11,12,1.0,1.0,1.0*30
$GPRMC,170731.727,A,1301.386,N,08015.309,E,038.9,197.4,140624,000.0,W*7F
$GPGGA,170732.727,1301.376,N,08015.305,E,1,12,1.0,0.0,M,0.0,M,,*67
$GPGSA,A,3,01,02,03,04,05,06,07,08,09,10,11,12,1.0,1.0,1.0*30
$GPRMC,170732.727,A,1301.376,N,08015.305,E,038.9,197.4,140624,000.0,W*7F
$GPGGA,170733.727,1301.365,N,08015.302,E,1,12,1.0,0.0,M,0.0,M,,*63
$GPGSA,A,3,01,02,03,04,05,06,07,08,09,10,11,12,1.0,1.0,1.0*30
$GPRMC,170733.727,A,1301.365,N,08015.302,E,038.9,197.4,140624,000.0,W*7B
$GPGGA,170734.727,1301.355,N,08015.299,E,1,12,1.0,0.0,M,0.0,M,,*64
$GPGSA,A,3,01,02,03,04,05,06,07,08,09,10,11,12,1.0,1.0,1.0*30
$GPRMC,170734.727,A,1301.355,N,08015.299,E,038.9,197.4,140624,000.0,W*7C
$GPGGA,170735.727,1301.345,N,08015.296,E,1,12,1.0,0.0,M,0.0,M,,*6B
$GPGSA,A,3,01,02,03,04,05,06,07,08,09,10,11,12,1.0,1.0,1.0*30
$GPRMC,170735.727,A,1301.345,N,08015.296,E,038.9,197.4,140624,000.0,W*73
$GPGGA,170736.727,1301.334,N,08015.292,E,1,12,1.0,0.0,M,0.0,M,,*6A
$GPGSA,A,3,01,02,03,04,05,06,07,08,09,10,11,12,1.0,1.0,1.0*30
$GPRMC,170736.727,A,1301.334,N,08015.292,E,038.9,197.4,140624,000.0,W*72
$GPGGA,170737.727,1301.324,N,08015.289,E,1,12,1.0,0.0,M,0.0,M,,*60
$GPGSA,A,3,01,02,03,04,05,06,07,08,09,10,11,12,1.0,1.0,1.0*30
$GPRMC,170737.727,A,1301.324,N,08015.289,E,038.9,197.4,140624,000.0,W*78
$GPGGA,170738.727,1301.314,N,08015.286,E,1,12,1.0,0.0,M,0.0,M,,*63
$GPGSA,A,3,01,02,03,04,05,06,07,08,09,10,11,12,1.0,1.0,1.0*30
$GPRMC,170738.727,A,1301.314,N,08015.286,E,038.9,197.4,140624,000.0,W*7B
$GPGGA,170739.727,1301.303,N,08015.283,E,1,12,1.0,0.0,M,0.0,M,,*61
$GPGSA,A,3,01,02,03,04,05,06,07,08,09,10,11,12,1.0,1.0,1.0*30
$GPRMC,170739.727,A,1301.303,N,08015.283,E,038.9,197.4,140624,000.0,W*79
$GPGGA,170740.727,1301.293,N,08015.279,E,1,12,1.0,0.0,M,0.0,M,,*62
$GPGSA,A,3,01,02,03,04,05,06,07,08,09,10,11,12,1.0,1.0,1.0*30
$GPRMC,170740.727,A,1301.293,N,08015.279,E,038.9,162.0,140624,000.0,W*74
$GPGGA,170741.727,1301.283,N,08015.283,E,1,12,1.0,0.0,M,0.0,M,,*67
$GPGSA,A,3,01,02,03,04,05,06,07,08,09,10,11,12,1.0,1.0,1.0*30
$GPRMC,170741.727,A,1301.283,N,08015.283,E,038.9,162.0,140624,000.0,W*71
$GPGGA,170742.727,1301.272,N,08015.286,E,1,12,1.0,0.0,M,0.0,M,,*6F
$GPGSA,A,3,01,02,03,04,05,06,07,08,09,10,11,12,1.0,1.0,1.0*30
$GPRMC,170742.727,A,1301.272,N,08015.286,E,038.9,162.0,140624,000.0,W*79
$GPGGA,170743.727,1301.262,N,08015.289,E,1,12,1.0,0.0,M,0.0,M,,*60
$GPGSA,A,3,01,02,03,04,05,06,07,08,09,10,11,12,1.0,1.0,1.0*30
$GPRMC,170743.727,A,1301.262,N,08015.289,E,038.9,162.0,140624,000.0,W*76
$GPGGA,170744.727,1301.252,N,08015.293,E,1,12,1.0,0.0,M,0.0,M,,*6F
$GPGSA,A,3,01,02,03,04,05,06,07,08,09,10,11,12,1.0,1.0,1.0*30
$GPRMC,170744.727,A,1301.252,N,08015.293,E,038.9,162.0,140624,000.0,W*79
$GPGGA,170745.727,1301.242,N,08015.296,E,1,12,1.0,0.0,M,0.0,M,,*6A
$GPGSA,A,3,01,02,03,04,05,06,07,08,09,10,11,12,1.0,1.0,1.0*30
$GPRMC,170745.727,A,1301.242,N,08015.296,E,038.9,162.0,140624,000.0,W*7C
$GPGGA,170746.727,1301.231,N,08015.299,E,1,12,1.0,0.0,M,0.0,M,,*62
$GPGSA,A,3,01,02,03,04,05,06,07,08,09,10,11,12,1.0,1.0,1.0*30
$GPRMC,170746.727,A,1301.231,N,08015.299,E,038.9,162.0,140624,000.0,W*74
$GPGGA,170747.727,1301.221,N,08015.303,E,1,12,1.0,0.0,M,0.0,M,,*60
$GPGSA,A,3,01,02,03,04,05,06,07,08,09,10,11,12,1.0,1.0,1.0*30
$GPRMC,170747.727,A,1301.221,N,08015.303,E,038.9,162.0,140624,000.0,W*76
$GPGGA,170748.727,1301.211,N,08015.306,E,1,12,1.0,0.0,M,0.0,M,,*69
$GPGSA,A,3,01,02,03,04,05,06,07,08,09,10,11,12,1.0,1.0,1.0*30
$GPRMC,170748.727,A,1301.211,N,08015.306,E,038.9,162.0,140624,000.0,W*7F
$GPGGA,170749.727,1301.200,N,08015.309,E,1,12,1.0,0.0,M,0.0,M,,*67
$GPGSA,A,3,01,02,03,04,05,06,07,08,09,10,11,12,1.0,1.0,1.0*30
$GPRMC,170749.727,A,1301.200,N,08015.309,E,038.9,162.0,140624,000.0,W*71
$GPGGA,170750.727,1301.190,N,08015.313,E,1,12,1.0,0.0,M,0.0,M,,*6E
$GPGSA,A,3,01,02,03,04,05,06,07,08,09,10,11,12,1.0,1.0,1.0*30
$GPRMC,170750.727,A,1301.190,N,08015.313,E,038.9,162.0,140624,000.0,W*78
$GPGGA,170751.727,1301.180,N,08015.316,E,1,12,1.0,0.0,M,0.0,M,,*6B
$GPGSA,A,3,01,02,03,04,05,06,07,08,09,10,11,12,1.0,1.0,1.0*30
$GPRMC,170751.727,A,1301.180,N,08015.316,E,038.9,113.0,140624,000.0,W*7B
$GPGGA,170752.727,1301.176,N,08015.326,E,1,12,1.0,0.0,M,0.0,M,,*62
$GPGSA,A,3,01,02,03,04,05,06,07,08,09,10,11,12,1.0,1.0,1.0*30
$GPRMC,170752.727,A,1301.176,N,08015.326,E,038.9,113.0,140624,000.0,W*72
$GPGGA,170753.727,1301.171,N,08015.336,E,1,12,1.0,0.0,M,0.0,M,,*65
$GPGSA,A,3,01,02,03,04,05,06,07,08,09,10,11,12,1.0,1.0,1.0*30
$GPRMC,170753.727,A,1301.171,N,08015.336,E,038.9,113.0,140624,000.0,W*75
$GPGGA,170754.727,1301.167,N,08015.347,E,1,12,1.0,0.0,M,0.0,M,,*63
$GPGSA,A,3,01,02,03,04,05,06,07,08,09,10,11,12,1.0,1.0,1.0*30
$GPRMC,170754.727,A,1301.167,N,08015.347,E,038.9,113.0,140624,000.0,W*73
$GPGGA,170755.727,1301.163,N,08015.357,E,1,12,1.0,0.0,M,0.0,M,,*67
$GPGSA,A,3,01,02,03,04,05,06,07,08,09,10,11,12,1.0,1.0,1.0*30
$GPRMC,170755.727,A,1301.163,N,08015.357,E,038.9,003.1,140624,000.0,W*76
$GPGGA,170756.727,1301.173,N,08015.357,E,1,12,1.0,0.0,M,0.0,M,,*65
$GPGSA,A,3,01,02,03,04,05,06,07,08,09,10,11,12,1.0,1.0,1.0*30
$GPRMC,170756.727,A,1301.173,N,08015.357,E,038.9,003.1,140624,000.0,W*74
$GPGGA,170757.727,1301.184,N,08015.358,E,1,12,1.0,0.0,M,0.0,M,,*63
$GPGSA,A,3,01,02,03,04,05,06,07,08,09,10,11,12,1.0,1.0,1.0*30
$GPRMC,170757.727,A,1301.184,N,08015.358,E,038.9,003.1,140624,000.0,W*72
$GPGGA,170758.727,1301.195,N,08015.358,E,1,12,1.0,0.0,M,0.0,M,,*6C
$GPGSA,A,3,01,02,03,04,05,06,07,08,09,10,11,12,1.0,1.0,1.0*30
$GPRMC,170758.727,A,1301.195,N,08015.358,E,038.9,003.1,140624,000.0,W*7D
$GPGGA,170759.727,1301.206,N,08015.359,E,1,12,1.0,0.0,M,0.0,M,,*65
$GPGSA,A,3,01,02,03,04,05,06,07,08,09,10,11,12,1.0,1.0,1.0*30
$GPRMC,170759.727,A,1301.206,N,08015.359,E,038.9,003.1,140624,000.0,W*74
$GPGGA,170800.727,1301.217,N,08015.360,E,1,12,1.0,0.0,M,0.0,M,,*6C
$GPGSA,A,3,01,02,03,04,05,06,07,08,09,10,11,12,1.0,1.0,1.0*30
$GPRMC,170800.727,A,1301.217,N,08015.360,E,038.9,003.1,140624,000.0,W*7D
$GPGGA,170801.727,1301.227,N,08015.360,E,1,12,1.0,0.0,M,0.0,M,,*6E
$GPGSA,A,3,01,02,03,04,05,06,07,08,09,10,11,12,1.0,1.0,1.0*30
$GPRMC,170801.727,A,1301.227,N,08015.360,E,038.9,003.1,140624,000.0,W*7F
$GPGGA,170802.727,1301.238,N,08015.361,E,1,12,1.0,0.0,M,0.0,M,,*62
$GPGSA,A,3,01,02,03,04,05,06,07,08,09,10,11,12,1.0,1.0,1.0*30
$GPRMC,170802.727,A,1301.238,N,08015.361,E,038.9,221.1,140624,000.0,W*71
$GPGGA,170803.727,1301.230,N,08015.354,E,1,12,1.0,0.0,M,0.0,M,,*6D
$GPGSA,A,3,01,02,03,04,05,06,07,08,09,10,11,12,1.0,1.0,1.0*30
$GPRMC,170803.727,A,1301.230,N,08015.354,E,038.9,221.1,140624,000.0,W*7E
$GPGGA,170804.727,1301.222,N,08015.346,E,1,12,1.0,0.0,M,0.0,M,,*6A
$GPGSA,A,3,01,02,03,04,05,06,07,08,09,10,11,12,1.0,1.0,1.0*30
$GPRMC,170804.727,A,1301.222,N,08015.346,E,038.9,221.1,140624,000.0,W*79
$GPGGA,170805.727,1301.213,N,08015.339,E,1,12,1.0,0.0,M,0.0,M,,*61
$GPGSA,A,3,01,02,03,04,05,06,07,08,09,10,11,12,1.0,1.0,1.0*30
$GPRMC,170805.727,A,1301.213,N,08015.339,E,038.9,221.1,140624,000.0,W*72
$GPGGA,170806.727,1301.205,N,08015.332,E,1,12,1.0,0.0,M,0.0,M,,*6E
$GPGSA,A,3,01,02,03,04,05,06,07,08,09,10,11,12,1.0,1.0,1.0*30
$GPRMC,170806.727,A,1301.205,N,08015.332,E,038.9,348.1,140624,000.0,W*73
$GPGGA,170807.727,1301.216,N,08015.330,E,1,12,1.0,0.0,M,0.0,M,,*6F
$GPGSA,A,3,01,02,03,04,05,06,07,08,09,10,11,12,1.0,1.0,1.0*30
$GPRMC,170807.727,A,1301.216,N,08015.330,E,038.9,348.1,140624,000.0,W*72
$GPGGA,170808.727,1301.226,N,08015.328,E,1,12,1.0,0.0,M,0.0,M,,*6A
$GPGSA,A,3,01,02,03,04,05,06,07,08,09,10,11,12,1.0,1.0,1.0*30
$GPRMC,170808.727,A,1301.226,N,08015.328,E,038.9,348.1,140624,000.0,W*77
$GPGGA,170809.727,1301.237,N,08015.325,E,1,12,1.0,0.0,M,0.0,M,,*66
$GPGSA,A,3,01,02,03,04,05,06,07,08,09,10,11,12,1.0,1.0,1.0*30
$GPRMC,170809.727,A,1301.237,N,08015.325,E,038.9,348.1,140624,000.0,W*7B
$GPGGA,170810.727,1301.247,N,08015.323,E,1,12,1.0,0.0,M,0.0,M,,*6F
$GPGSA,A,3,01,02,03,04,05,06,07,08,09,10,11,12,1.0,1.0,1.0*30
$GPRMC,170810.727,A,1301.247,N,08015.323,E,038.9,348.1,140624,000.0,W*72
$GPGGA,170811.727,1301.258,N,08015.321,E,1,12,1.0,0.0,M,0.0,M,,*62
$GPGSA,A,3,01,02,03,04,05,06,07,08,09,10,11,12,1.0,1.0,1.0*30
$GPRMC,170811.727,A,1301.258,N,08015.321,E,038.9,348.1,140624,000.0,W*7F
$GPGGA,170812.727,1301.269,N,08015.319,E,1,12,1.0,0.0,M,0.0,M,,*68
$GPGSA,A,3,01,02,03,04,05,06,07,08,09,10,11,12,1.0,1.0,1.0*30
$GPRMC,170812.727,A,1301.269,N,08015.319,E,038.9,348.1,140624,000.0,W*75
$GPGGA,170813.727,1301.279,N,08015.316,E,1,12,1.0,0.0,M,0.0,M,,*67
$GPGSA,A,3,01,02,03,04,05,06,07,08,09,10,11,12,1.0,1.0,1.0*30
$GPRMC,170813.727,A,1301.279,N,08015.316,E,038.9,015.2,140624,000.0,W*72
$GPGGA,170814.727,1301.290,N,08015.319,E,1,12,1.0,0.0,M,0.0,M,,*68
$GPGSA,A,3,01,02,03,04,05,06,07,08,09,10,11,12,1.0,1.0,1.0*30
$GPRMC,170814.727,A,1301.290,N,08015.319,E,038.9,015.2,140624,000.0,W*7D
$GPGGA,170815.727,1301.300,N,08015.322,E,1,12,1.0,0.0,M,0.0,M,,*69
$GPGSA,A,3,01,02,03,04,05,06,07,08,09,10,11,12,1.0,1.0,1.0*30
$GPRMC,170815.727,A,1301.300,N,08015.322,E,038.9,015.2,140624,000.0,W*7C
$GPGGA,170816.727,1301.310,N,08015.325,E,1,12,1.0,0.0,M,0.0,M,,*6C
$GPGSA,A,3,01,02,03,04,05,06,07,08,09,10,11,12,1.0,1.0,1.0*30
$GPRMC,170816.727,A,1301.310,N,08015.325,E,038.9,015.2,140624,000.0,W*79
$GPGGA,170817.727,1301.321,N,08015.328,E,1,12,1.0,0.0,M,0.0,M,,*62
$GPGSA,A,3,01,02,03,04,05,06,07,08,09,10,11,12,1.0,1.0,1.0*30
$GPRMC,170817.727,A,1301.321,N,08015.328,E,038.9,015.2,140624,000.0,W*77
$GPGGA,170818.727,1301.331,N,08015.331,E,1,12,1.0,0.0,M,0.0,M,,*64
$GPGSA,A,3,01,02,03,04,05,06,07,08,09,10,11,12,1.0,1.0,1.0*30
$GPRMC,170818.727,A,1301.331,N,08015.331,E,038.9,015.2,140624,000.0,W*71
$GPGGA,170819.727,1301.342,N,08015.333,E,1,12,1.0,0.0,M,0.0,M,,*63
$GPGSA,A,3,01,02,03,04,05,06,07,08,09,10,11,12,1.0,1.0,1.0*30
$GPRMC,170819.727,A,1301.342,N,08015.333,E,038.9,015.2,140624,000.0,W*76
$GPGGA,170820.727,1301.352,N,08015.336,E,1,12,1.0,0.0,M,0.0,M,,*6D
$GPGSA,A,3,01,02,03,04,05,06,07,08,09,10,11,12,1.0,1.0,1.0*30
$GPRMC,170820.727,A,1301.352,N,08015.336,E,038.9,007.2,140624,000.0,W*7B
$GPGGA,170821.727,1301.363,N,08015.338,E,1,12,1.0,0.0,M,0.0,M,,*60
$GPGSA,A,3,01,02,03,04,05,06,07,08,09,10,11,12,1.0,1.0,1.0*30
$GPRMC,170821.727,A,1301.363,N,08015.338,E,038.9,007.2,140624,000.0,W*76
$GPGGA,170822.727,1301.374,N,08015.339,E,1,12,1.0,0.0,M,0.0,M,,*64
$GPGSA,A,3,01,02,03,04,05,06,07,08,09,10,11,12,1.0,1.0,1.0*30
$GPRMC,170822.727,A,1301.374,N,08015.339,E,038.9,007.2,140624,000.0,W*72
$GPGGA,170823.727,1301.384,N,08015.340,E,1,12,1.0,0.0,M,0.0,M,,*64
$GPGSA,A,3,01,02,03,04,05,06,07,08,09,10,11,12,1.0,1.0,1.0*30
$GPRMC,170823.727,A,1301.384,N,08015.340,E,038.9,007.2,140624,000.0,W*72
$GPGGA,170824.727,1301.395,N,08015.342,E,1,12,1.0,0.0,M,0.0,M,,*61
$GPGSA,A,3,01,02,03,04,05,06,07,08,09,10,11,12,1.0,1.0,1.0*30
$GPRMC,170824.727,A,1301.395,N,08015.342,E,038.9,007.2,140624,000.0,W*77
$GPGGA,170825.727,1301.406,N,08015.343,E,1,12,1.0,0.0,M,0.0,M,,*6C
$GPGSA,A,3,01,02,03,04,05,06,07,08,09,10,11,12,1.0,1.0,1.0*30
$GPRMC,170825.727,A,1301.406,N,08015.343,E,038.9,007.2,140624,000.0,W*7A
$GPGGA,170826.727,1301.416,N,08015.344,E,1,12,1.0,0.0,M,0.0,M,,*69
$GPGSA,A,3,01,02,03,04,05,06,07,08,09,10,11,12,1.0,1.0,1.0*30
$GPRMC,170826.727,A,1301.416,N,08015.344,E,038.9,035.6,140624,000.0,W*7A
$GPGGA,170827.727,1301.425,N,08015.351,E,1,12,1.0,0.0,M,0.0,M,,*6C
$GPGSA,A,3,01,02,03,04,05,06,07,08,09,10,11,12,1.0,1.0,1.0*30
$GPRMC,170827.727,A,1301.425,N,08015.351,E,038.9,035.6,140624,000.0,W*7F
$GPGGA,170828.727,1301.434,N,08015.357,E,1,12,1.0,0.0,M,0.0,M,,*65
$GPGSA,A,3,01,02,03,04,05,06,07,08,09,10,11,12,1.0,1.0,1.0*30
$GPRMC,170828.727,A,1301.434,N,08015.357,E,038.9,035.6,140624,000.0,W*76
$GPGGA,170829.727,1301.443,N,08015.363,E,1,12,1.0,0.0,M,0.0,M,,*63
$GPGSA,A,3,01,02,03,04,05,06,07,08,09,10,11,12,1.0,1.0,1.0*30
$GPRMC,170829.727,A,1301.443,N,08015.363,E,038.9,035.6,140624,000.0,W*70
$GPGGA,170830.727,1301.452,N,08015.370,E,1,12,1.0,0.0,M,0.0,M,,*69
$GPGSA,A,3,01,02,03,04,05,06,07,08,09,10,11,12,1.0,1.0,1.0*30
$GPRMC,170830.727,A,1301.452,N,08015.370,E,038.9,035.6,140624,000.0,W*7A
$GPGGA,170831.727,1301.461,N,08015.376,E,1,12,1.0,0.0,M,0.0,M,,*6E
$GPGSA,A,3,01,02,03,04,05,06,07,08,09,10,11,12,1.0,1.0,1.0*30
$GPRMC,170831.727,A,1301.461,N,08015.376,E,038.9,046.3,140624,000.0,W*7C
$GPGGA,170832.727,1301.468,N,08015.384,E,1,12,1.0,0.0,M,0.0,M,,*69
$GPGSA,A,3,01,02,03,04,05,06,07,08,09,10,11,12,1.0,1.0,1.0*30
$GPRMC,170832.727,A,1301.468,N,08015.384,E,038.9,046.3,140624,000.0,W*7B
$GPGGA,170833.727,1301.476,N,08015.392,E,1,12,1.0,0.0,M,0.0,M,,*60
$GPGSA,A,3,01,02,03,04,05,06,07,08,09,10,11,12,1.0,1.0,1.0*30
$GPRMC,170833.727,A,1301.476,N,08015.392,E,038.9,046.3,140624,000.0,W*72
$GPGGA,170834.727,1301.483,N,08015.400,E,1,12,1.0,0.0,M,0.0,M,,*61
$GPGSA,A,3,01,02,03,04,05,06,07,08,09,10,11,12,1.0,1.0,1.0*30
$GPRMC,170834.727,A,1301.483,N,08015.400,E,038.9,046.3,140624,000.0,W*73
$GPGGA,170835.727,1301.491,N,08015.408,E,1,12,1.0,0.0,M,0.0,M,,*6B
$GPGSA,A,3,01,02,03,04,05,06,07,08,09,10,11,12,1.0,1.0,1.0*30
$GPRMC,170835.727,A,1301.491,N,08015.408,E,038.9,046.3,140624,000.0,W*79
$GPGGA,170836.727,1301.498,N,08015.416,E,1,12,1.0,0.0,M,0.0,M,,*6E
$GPGSA,A,3,01,02,03,04,05,06,07,08,09,10,11,12,1.0,1.0,1.0*30
$GPRMC,170836.727,A,1301.498,N,08015.416,E,038.9,046.3,140624,000.0,W*7C
$GPGGA,170837.727,1301.506,N,08015.423,E,1,12,1.0,0.0,M,0.0,M,,*6F
$GPGSA,A,3,01,02,03,04,05,06,07,08,09,10,11,12,1.0,1.0,1.0*30
$GPRMC,170837.727,A,1301.506,N,08015.423,E,038.9,046.3,140624,000.0,W*7D
$GPGGA,170838.727,1301.514,N,08015.431,E,1,12,1.0,0.0,M,0.0,M,,*60
$GPGSA,A,3,01,02,03,04,05,06,07,08,09,10,11,12,1.0,1.0,1.0*30
$GPRMC,170838.727,A,1301.514,N,08015.431,E,038.9,046.3,140624,000.0,W*72
$GPGGA,170839.727,1301.521,N,08015.439,E,1,12,1.0,0.0,M,0.0,M,,*6F
$GPGSA,A,3,01,02,03,04,05,06,07,08,09,10,11,12,1.0,1.0,1.0*30
$GPRMC,170839.727,A,1301.521,N,08015.439,E,038.9,046.3,140624,000.0,W*7D
$GPGGA,170840.727,1301.529,N,08015.447,E,1,12,1.0,0.0,M,0.0,M,,*60
$GPGSA,A,3,01,02,03,04,05,06,07,08,09,10,11,12,1.0,1.0,1.0*30
$GPRMC,170840.727,A,1301.529,N,08015.447,E,038.9,307.1,140624,000.0,W*76
$GPGGA,170841.727,1301.535,N,08015.438,E,1,12,1.0,0.0,M,0.0,M,,*64
$GPGSA,A,3,01,02,03,04,05,06,07,08,09,10,11,12,1.0,1.0,1.0*30
$GPRMC,170841.727,A,1301.535,N,08015.438,E,038.9,307.1,140624,000.0,W*72
$GPGGA,170842.727,1301.542,N,08015.430,E,1,12,1.0,0.0,M,0.0,M,,*6F
$GPGSA,A,3,01,02,03,04,05,06,07,08,09,10,11,12,1.0,1.0,1.0*30
$GPRMC,170842.727,A,1301.542,N,08015.430,E,038.9,307.1,140624,000.0,W*79
$GPGGA,170843.727,1301.549,N,08015.421,E,1,12,1.0,0.0,M,0.0,M,,*65
$GPGSA,A,3,01,02,03,04,05,06,07,08,09,10,11,12,1.0,1.0,1.0*30
$GPRMC,170843.727,A,1301.549,N,08015.421,E,038.9,307.1,140624,000.0,W*73
$GPGGA,170844.727,1301.555,N,08015.412,E,1,12,1.0,0.0,M,0.0,M,,*6F
$GPGSA,A,3,01,02,03,04,05,06,07,08,09,10,11,12,1.0,1.0,1.0*30
$GPRMC,170844.727,A,1301.555,N,08015.412,E,038.9,307.1,140624,000.0,W*79
$GPGGA,170845.727,1301.562,N,08015.403,E,1,12,1.0,0.0,M,0.0,M,,*6A
$GPGSA,A,3,01,02,03,04,05,06,07,08,09,10,11,12,1.0,1.0,1.0*30
$GPRMC,170845.727,A,1301.562,N,08015.403,E,038.9,170.2,140624,000.0,W*7D
$GPGGA,170846.727,1301.551,N,08015.405,E,1,12,1.0,0.0,M,0.0,M,,*6F
$GPGSA,A,3,01,02,03,04,05,06,07,08,09,10,11,12,1.0,1.0,1.0*30
$GPRMC,170846.727,A,1301.551,N,08015.405,E,038.9,170.2,140624,000.0,W*78
$GPGGA,170847.727,1301.540,N,08015.407,E,1,12,1.0,0.0,M,0.0,M,,*6C
$GPGSA,A,3,01,02,03,04,05,06,07,08,09,10,11,12,1.0,1.0,1.0*30
$GPRMC,170847.727,A,1301.540,N,08015.407,E,038.9,170.2,140624,000.0,W*7B
$GPGGA,170848.727,1301.530,N,08015.409,E,1,12,1.0,0.0,M,0.0,M,,*6A
$GPGSA,A,3,01,02,03,04,05,06,07,08,09,10,11,12,1.0,1.0,1.0*30
$GPRMC,170848.727,A,1301.530,N,08015.409,E,038.9,290.9,140624,000.0,W*7B
$GPGGA,170849.727,1301.534,N,08015.399,E,1,12,1.0,0.0,M,0.0,M,,*61
$GPGSA,A,3,01,02,03,04,05,06,07,08,09,10,11,12,1.0,1.0,1.0*30
$GPRMC,170849.727,A,1301.534,N,08015.399,E,038.9,290.9,140624,000.0,W*70
$GPGGA,170850.727,1301.538,N,08015.388,E,1,12,1.0,0.0,M,0.0,M,,*65
$GPGSA,A,3,01,02,03,04,05,06,07,08,09,10,11,12,1.0,1.0,1.0*30
$GPRMC,170850.727,A,1301.538,N,08015.388,E,038.9,290.9,140624,000.0,W*74
$GPGGA,170851.727,1301.542,N,08015.378,E,1,12,1.0,0.0,M,0.0,M,,*66
$GPGSA,A,3,01,02,03,04,05,06,07,08,09,10,11,12,1.0,1.0,1.0*30
$GPRMC,170851.727,A,1301.542,N,08015.378,E,038.9,290.9,140624,000.0,W*77
$GPGGA,170852.727,1301.546,N,08015.368,E,1,12,1.0,0.0,M,0.0,M,,*60
$GPGSA,A,3,01,02,03,04,05,06,07,08,09,10,11,12,1.0,1.0,1.0*30
$GPRMC,170852.727,A,1301.546,N,08015.368,E,038.9,290.9,140624,000.0,W*71
$GPGGA,170853.727,1301.549,N,08015.357,E,1,12,1.0,0.0,M,0.0,M,,*62
$GPGSA,A,3,01,02,03,04,05,06,07,08,09,10,11,12,1.0,1.0,1.0*30
$GPRMC,170853.727,A,1301.549,N,08015.357,E,038.9,290.9,140624,000.0,W*73
$GPGGA,170854.727,1301.553,N,08015.347,E,1,12,1.0,0.0,M,0.0,M,,*6F
$GPGSA,A,3,01,02,03,04,05,06,07,08,09,10,11,12,1.0,1.0,1.0*30
$GPRMC,170854.727,A,1301.553,N,08015.347,E,038.9,290.9,140624,000.0,W*7E
$GPGGA,170855.727,1301.557,N,08015.337,E,1,12,1.0,0.0,M,0.0,M,,*6D
$GPGSA,A,3,01,02,03,04,05,06,07,08,09,10,11,12,1.0,1.0,1.0*30
$GPRMC,170855.727,A,1301.557,N,08015.337,E,038.9,290.9,140624,000.0,W*7C
$GPGGA,170856.727,1301.561,N,08015.326,E,1,12,1.0,0.0,M,0.0,M,,*6B
$GPGSA,A,3,01,02,03,04,05,06,07,08,09,10,11,12,1.0,1.0,1.0*30
$GPRMC,170856.727,A,1301.561,N,08015.326,E,038.9,290.9,140624,000.0,W*7A
$GPGGA,170857.727,1301.565,N,08015.316,E,1,12,1.0,0.0,M,0.0,M,,*6D
$GPGSA,A,3,01,02,03,04,05,06,07,08,09,10,11,12,1.0,1.0,1.0*30
$GPRMC,170857.727,A,1301.565,N,08015.316,E,038.9,026.6,140624,000.0,W*7C
$GPGGA,170858.727,1301.575,N,08015.321,E,1,12,1.0,0.0,M,0.0,M,,*67
$GPGSA,A,3,01,02,03,04,05,06,07,08,09,10,11,12,1.0,1.0,1.0*30
$GPRMC,170858.727,A,1301.575,N,08015.321,E,038.9,026.6,140624,000.0,W*76
$GPGGA,170859.727,1301.585,N,08015.326,E,1,12,1.0,0.0,M,0.0,M,,*6E
$GPGSA,A,3,01,02,03,04,05,06,07,08,09,10,11,12,1.0,1.0,1.0*30
$GPRMC,170859.727,A,1301.585,N,08015.326,E,038.9,027.0,140624,000.0,W*78
$GPGGA,170900.727,1301.594,N,08015.331,E,1,12,1.0,0.0,M,0.0,M,,*65
$GPGSA,A,3,01,02,03,04,05,06,07,08,09,10,11,12,1.0,1.0,1.0*30
$GPRMC,170900.727,A,1301.594,N,08015.331,E,038.9,027.0,140624,000.0,W*73
$GPGGA,170901.727,1301.604,N,08015.336,E,1,12,1.0,0.0,M,0.0,M,,*69
$GPGSA,A,3,01,02,03,04,05,06,07,08,09,10,11,12,1.0,1.0,1.0*30
$GPRMC,170901.727,A,1301.604,N,08015.336,E,038.9,027.0,140624,000.0,W*7F
$GPGGA,170902.727,1301.614,N,08015.341,E,1,12,1.0,0.0,M,0.0,M,,*6B
$GPGSA,A,3,01,02,03,04,05,06,07,08,09,10,11,12,1.0,1.0,1.0*30
$GPRMC,170902.727,A,1301.614,N,08015.341,E,038.9,146.3,140624,000.0,W*78
$GPGGA,170903.727,1301.605,N,08015.347,E,1,12,1.0,0.0,M,0.0,M,,*6C
$GPGSA,A,3,01,02,03,04,05,06,07,08,09,10,11,12,1.0,1.0,1.0*30
$GPRMC,170903.727,A,1301.605,N,08015.347,E,038.9,146.3,140624,000.0,W*7F
$GPGGA,170904.727,1301.595,N,08015.353,E,1,12,1.0,0.0,M,0.0,M,,*64
$GPGSA,A,3,01,02,03,04,05,06,07,08,09,10,11,12,1.0,1.0,1.0*30
$GPRMC,170904.727,A,1301.595,N,08015.353,E,038.9,146.3,140624,000.0,W*77
$GPGGA,170905.727,1301.586,N,08015.359,E,1,12,1.0,0.0,M,0.0,M,,*6D
$GPGSA,A,3,01,02,03,04,05,06,07,08,09,10,11,12,1.0,1.0,1.0*30
$GPRMC,170905.727,A,1301.586,N,08015.359,E,038.9,146.3,140624,000.0,W*7E
$GPGGA,170906.727,1301.577,N,08015.365,E,1,12,1.0,0.0,M,0.0,M,,*6F
$GPGSA,A,3,01,02,03,04,05,06,07,08,09,10,11,12,1.0,1.0,1.0*30
$GPRMC,170906.727,A,1301.577,N,08015.365,E,038.9,065.1,140624,000.0,W*7E
$GPGGA,170907.727,1301.582,N,08015.375,E,1,12,1.0,0.0,M,0.0,M,,*65
$GPGSA,A,3,01,02,03,04,05,06,07,08,09,10,11,12,1.0,1.0,1.0*30
$GPRMC,170907.727,A,1301.582,N,08015.375,E,038.9,065.1,140624,000.0,W*74
$GPGGA,170908.727,1301.587,N,08015.385,E,1,12,1.0,0.0,M,0.0,M,,*60
$GPGSA,A,3,01,02,03,04,05,06,07,08,09,10,11,12,1.0,1.0,1.0*30
$GPRMC,170908.727,A,1301.587,N,08015.385,E,038.9,065.1,140624,000.0,W*71
$GPGGA,170909.727,1301.591,N,08015.395,E,1,12,1.0,0.0,M,0.0,M,,*67
$GPGSA,A,3,01,02,03,04,05,06,07,08,09,10,11,12,1.0,1.0,1.0*30
$GPRMC,170909.727,A,1301.591,N,08015.395,E,038.9,065.1,140624,000.0,W*76
$GPGGA,170910.727,1301.596,N,08015.405,E,1,12,1.0,0.0,M,0.0,M,,*66
$GPGSA,A,3,01,02,03,04,05,06,07,08,09,10,11,12,1.0,1.0,1.0*30
$GPRMC,170910.727,A,1301.596,N,08015.405,E,038.9,065.1,140624,000.0,W*77
$GPGGA,170911.727,1301.601,N,08015.415,E,1,12,1.0,0.0,M,0.0,M,,*6B
$GPGSA,A,3,01,02,03,04,05,06,07,08,09,10,11,12,1.0,1.0,1.0*30
$GPRMC,170911.727,A,1301.601,N,08015.415,E,038.9,065.1,140624,000.0,W*7A
$GPGGA,170912.727,1301.605,N,08015.425,E,1,12,1.0,0.0,M,0.0,M,,*6F
$GPGSA,A,3,01,02,03,04,05,06,07,08,09,10,11,12,1.0,1.0,1.0*30
$GPRMC,170912.727,A,1301.605,N,08015.425,E,038.9,280.1,140624,000.0,W*77
$GPGGA,170913.727,1301.607,N,08015.414,E,1,12,1.0,0.0,M,0.0,M,,*6E
$GPGSA,A,3,01,02,03,04,05,06,07,08,09,10,11,12,1.0,1.0,1.0*30
$GPRMC,170913.727,A,1301.607,N,08015.414,E,038.9,280.1,140624,000.0,W*76
$GPGGA,170914.727,1301.609,N,08015.403,E,1,12,1.0,0.0,M,0.0,M,,*61
$GPGSA,A,3,01,02,03,04,05,06,07,08,09,10,11,12,1.0,1.0,1.0*30
$GPRMC,170914.727,A,1301.609,N,08015.403,E,038.9,280.1,140624,000.0,W*79
$GPGGA,170915.727,1301.611,N,08015.392,E,1,12,1.0,0.0,M,0.0,M,,*66
$GPGSA,A,3,01,02,03,04,05,06,07,08,09,10,11,12,1.0,1.0,1.0*30
$GPRMC,170915.727,A,1301.611,N,08015.392,E,038.9,280.1,140624,000.0,W*7E
$GPGGA,170916.727,1301.613,N,08015.381,E,1,12,1.0,0.0,M,0.0,M,,*65
$GPGSA,A,3,01,02,03,04,05,06,07,08,09,10,11,12,1.0,1.0,1.0*30
$GPRMC,170916.727,A,1301.613,N,08015.381,E,038.9,081.7,140624,000.0,W*78
$GPGGA,170917.727,1301.615,N,08015.392,E,1,12,1.0,0.0,M,0.0,M,,*60
$GPGSA,A,3,01,02,03,04,05,06,07,08,09,10,11,12,1.0,1.0,1.0*30
$GPRMC,170917.727,A,1301.615,N,08015.392,E,038.9,081.7,140624,000.0,W*7D
$GPGGA,170918.727,1301.616,N,08015.403,E,1,12,1.0,0.0,M,0.0,M,,*63
$GPGSA,A,3,01,02,03,04,05,06,07,08,09,10,11,12,1.0,1.0,1.0*30
$GPRMC,170918.727,A,1301.616,N,08015.403,E,038.9,081.7,140624,000.0,W*7E
$GPGGA,170919.727,1301.618,N,08015.414,E,1,12,1.0,0.0,M,0.0,M,,*6A
$GPGSA,A,3,01,02,03,04,05,06,07,08,09,10,11,12,1.0,1.0,1.0*30
$GPRMC,170919.727,A,1301.618,N,08015.414,E,038.9,081.7,140624,000.0,W*77
$GPGGA,170920.727,1301.619,N,08015.425,E,1,12,1.0,0.0,M,0.0,M,,*63
$GPGSA,A,3,01,02,03,04,05,06,07,08,09,10,11,12,1.0,1.0,1.0*30
$GPRMC,170920.727,A,1301.619,N,08015.425,E,038.9,081.7,140624,000.0,W*7E
$GPGGA,170921.727,1301.621,N,08015.436,E,1,12,1.0,0.0,M,0.0,M,,*6B
$GPGSA,A,3,01,02,03,04,05,06,07,08,09,10,11,12,1.0,1.0,1.0*30
$GPRMC,170921.727,A,1301.621,N,08015.436,E,038.9,081.7,140624,000.0,W*76
$GPGGA,170922.727,1301.623,N,08015.447,E,1,12,1.0,0.0,M,0.0,M,,*6C
$GPGSA,A,3,01,02,03,04,05,06,07,08,09,10,11,12,1.0,1.0,1.0*30
$GPRMC,170922.727,A,1301.623,N,08015.447,E,038.9,081.7,140624,000.0,W*71
$GPGGA,170923.727,1301.624,N,08015.458,E,1,12,1.0,0.0,M,0.0,M,,*64
$GPGSA,A,3,01,02,03,04,05,06,07,08,09,10,11,12,1.0,1.0,1.0*30
$GPRMC,170923.727,A,1301.624,N,08015.458,E,038.9,084.9,140624,000.0,W*72
$GPGGA,170924.727,1301.625,N,08015.469,E,1,12,1.0,0.0,M,0.0,M,,*60
$GPGSA,A,3,01,02,03,04,05,06,07,08,09,10,11,12,1.0,1.0,1.0*30
$GPRMC,170924.727,A,1301.625,N,08015.469,E,038.9,084.9,140624,000.0,W*76
$GPGGA,170925.727,1301.626,N,08015.480,E,1,12,1.0,0.0,M,0.0,M,,*65
$GPGSA,A,3,01,02,03,04,05,06,07,08,09,10,11,12,1.0,1.0,1.0*30
$GPRMC,170925.727,A,1301.626,N,08015.480,E,038.9,084.9,140624,000.0,W*73
